country,state,city,station,last_update,latitude,longitude,pollutant_id,pollutant_min,pollutant_max,pollutant_avg
India,Andhra_Pradesh,Visakhapatnam,"GVM Corporation, Visakhapatnam - APPCB","27-01-2026 09:00:00",17.72,83.3,CO,10,66,40
India,Arunachal_Pradesh,Naharlagun,"Naharlagun, Naharlagun - APSPCB","27-01-2026 09:00:00",27.103358,93.679645,PM2.5,54,409,156
India,Arunachal_Pradesh,Naharlagun,"Naharlagun, Naharlagun - APSPCB","27-01-2026 09:00:00",27.103358,93.679645,CO,12,68,16
India,Assam,Byrnihat,"Central Academy for SFS, Byrnihat - PCBA","27-01-2026 09:00:00",26.071318,91.87488,PM2.5,91,204,137
India,Assam,Byrnihat,"Central Academy for SFS, Byrnihat - PCBA","27-01-2026 09:00:00",26.071318,91.87488,OZONE,13,23,16
India,Assam,Guwahati,"LGBI Airport, Guwahati - PCBA","27-01-2026 09:00:00",26.10887,91.589544,NO2,13,18,15
India,Assam,Guwahati,"Railway Colony, Guwahati - PCBA","27-01-2026 09:00:00",26.181742,91.78063,PM2.5,88,387,232
India,Assam,Nagaon,"Christianpatty, Nagaon - PCBA","27-01-2026 09:00:00",26.349082,92.68449,NH3,NA,NA,NA
India,Assam,Nagaon,"Christianpatty, Nagaon - PCBA","27-01-2026 09:00:00",26.349082,92.68449,SO2,NA,NA,NA
India,Bihar,Hajipur,"Industrial Area, Hajipur - BSPCB","27-01-2026 09:00:00",25.697189,85.245900,CO,20,71,48
India,Bihar,Hajipur,"Industrial Area, Hajipur - BSPCB","27-01-2026 09:00:00",25.697189,85.245900,OZONE,3,111,7
India,Bihar,Katihar,"Mirchaibari, Katihar - BSPCB","27-01-2026 09:00:00",25.560083,87.553265,PM2.5,37,103,73
India,Bihar,Katihar,"Mirchaibari, Katihar - BSPCB","27-01-2026 09:00:00",25.560083,87.553265,SO2,14,19,16
India,Bihar,Katihar,"Mirchaibari, Katihar - BSPCB","27-01-2026 09:00:00",25.560083,87.553265,CO,56,78,67
India,Bihar,Katihar,"Mirchaibari, Katihar - BSPCB","27-01-2026 09:00:00",25.560083,87.553265,OZONE,22,26,24
India,Bihar,Kishanganj,"SDM Office_Khagra, Kishanganj - BSPCB","27-01-2026 09:00:00",26.0881305,87.93840336,PM10,28,110,58
India,Bihar,Kishanganj,"SDM Office_Khagra, Kishanganj - BSPCB","27-01-2026 09:00:00",26.0881305,87.93840336,NH3,3,3,3
India,Bihar,Manguraha,"Forest Rest House, Manguraha - BSPCB","27-01-2026 09:00:00",27.308328,84.531742,PM2.5,60,257,98
India,Bihar,Motihari,"Gandak Colony, Motihari - BSPCB","27-01-2026 09:00:00",26.63086,84.90051,PM2.5,30,200,101
India,Chandigarh,Chandigarh,"Sector-25, Chandigarh - CPCC","27-01-2026 09:00:00",30.751462,76.762879,PM10,85,128,109
India,Chandigarh,Chandigarh,"Sector-25, Chandigarh - CPCC","27-01-2026 09:00:00",30.751462,76.762879,OZONE,1,46,4
India,Chhattisgarh,Bhilai,"32Bungalows, Bhilai - CECB","27-01-2026 09:00:00",21.194815,81.314770,NO2,33,58,45
India,Chhattisgarh,Bhilai,"32Bungalows, Bhilai - CECB","27-01-2026 09:00:00",21.194815,81.314770,SO2,6,10,7
India,Chhattisgarh,Bhilai,"32Bungalows, Bhilai - CECB","27-01-2026 09:00:00",21.194815,81.314770,CO,32,54,35
India,Chhattisgarh,Bhilai,"Civic Center, Bhilai - Bhilai Steel Plant","27-01-2026 09:00:00",21.185571,81.343175,NO2,11,278,77
India,Chhattisgarh,Bhilai,"Hathkhoj, Bhilai - CECB","27-01-2026 09:00:00",21.224231,81.408350,OZONE,5,18,8
India,Chhattisgarh,Bilaspur,"Mangala, Bilaspur - NTPC","27-01-2026 09:00:00",22.08815,82.13737,PM2.5,94,283,146
India,Chhattisgarh,Bilaspur,"Mangala, Bilaspur - NTPC","27-01-2026 09:00:00",22.08815,82.13737,NO2,24,147,57
India,Chhattisgarh,Bilaspur,"Mangala, Bilaspur - NTPC","27-01-2026 09:00:00",22.08815,82.13737,CO,48,117,74
India,Andhra_Pradesh,Amaravati,"Secretariat, Amaravati - APPCB","27-01-2026 09:00:00",16.5150833,80.5181667,PM2.5,28,358,183
India,Andhra_Pradesh,Amaravati,"Secretariat, Amaravati - APPCB","27-01-2026 09:00:00",16.5150833,80.5181667,PM10,29,393,160
India,Andhra_Pradesh,Anantapur,"Gulzarpet, Anantapur - APPCB","27-01-2026 09:00:00",14.675886,77.593027,PM10,66,85,71
India,Andhra_Pradesh,Chittoor,"Gangineni Cheruvu, Chittoor - APPCB","27-01-2026 09:00:00",13.204880,79.097889,CO,34,79,66
India,Andhra_Pradesh,Kadapa,"Yerramukkapalli, Kadapa - APPCB","27-01-2026 09:00:00",14.465052,78.824187,NO2,28,28,28
India,Andhra_Pradesh,Kadapa,"Yerramukkapalli, Kadapa - APPCB","27-01-2026 09:00:00",14.465052,78.824187,NH3,4,4,4
India,Andhra_Pradesh,Kadapa,"Yerramukkapalli, Kadapa - APPCB","27-01-2026 09:00:00",14.465052,78.824187,SO2,12,12,12
India,Andhra_Pradesh,Kadapa,"Yerramukkapalli, Kadapa - APPCB","27-01-2026 09:00:00",14.465052,78.824187,CO,8,12,9
India,Andhra_Pradesh,Rajamahendravaram,"Anand Kala Kshetram, Rajamahendravaram - APPCB","27-01-2026 09:00:00",16.9872867,81.7363176,PM10,92,143,112
India,Bihar,Patna,"Govt. High School Shikarpur, Patna - BSPCB","27-01-2026 09:00:00",25.592539,85.227158,NO2,14,19,16
India,Bihar,Patna,"IGSC Planetarium Complex, Patna - BSPCB","27-01-2026 09:00:00",25.610369,85.132568,OZONE,28,29,28
India,Bihar,Patna,"Muradpur, Patna - BSPCB","27-01-2026 09:00:00",25.619651,85.147382,OZONE,5,16,5
India,Bihar,Patna,"Rajbansi Nagar, Patna - BSPCB","27-01-2026 09:00:00",25.599486,85.113666,NO2,7,56,27
India,Bihar,Patna,"Rajbansi Nagar, Patna - BSPCB","27-01-2026 09:00:00",25.599486,85.113666,SO2,5,7,6
India,Bihar,Patna,"Samanpura, Patna - BSPCB","27-01-2026 09:00:00",25.596727,85.085624,PM10,67,209,136
India,Bihar,Patna,"Samanpura, Patna - BSPCB","27-01-2026 09:00:00",25.596727,85.085624,NH3,5,6,5
India,Bihar,Patna,"Samanpura, Patna - BSPCB","27-01-2026 09:00:00",25.596727,85.085624,CO,104,122,110
India,Bihar,Patna,"Samanpura, Patna - BSPCB","27-01-2026 09:00:00",25.596727,85.085624,OZONE,5,111,15
India,Bihar,Purnia,"Mariam Nagar, Purnia - BSPCB","27-01-2026 09:00:00",25.366336,87.117468,CO,56,78,62
India,Bihar,Motihari,"Gandak Colony, Motihari - BSPCB","27-01-2026 09:00:00",26.63086,84.90051,SO2,2,3,3
India,Bihar,Motihari,"Gandak Colony, Motihari - BSPCB","27-01-2026 09:00:00",26.63086,84.90051,CO,15,28,18
India,Bihar,Munger,"Town Hall, Munger - BSPCB","27-01-2026 09:00:00",25.376776,86.471523,SO2,18,64,28
India,Bihar,Muzaffarpur,"Buddha Colony, Muzaffarpur - BSPCB","27-01-2026 09:00:00",26.11442,85.39813,PM10,64,106,89
India,Bihar,Muzaffarpur,"Buddha Colony, Muzaffarpur - BSPCB","27-01-2026 09:00:00",26.11442,85.39813,SO2,8,12,9
India,Bihar,Muzaffarpur,"MIT-Daudpur Kothi, Muzaffarpur - BSPCB","27-01-2026 09:00:00",26.1403345,85.3650192,PM2.5,77,93,87
India,Bihar,Muzaffarpur,"Muzaffarpur Collectorate, Muzaffarpur - BSPCB","27-01-2026 09:00:00",26.1209,85.3647,PM2.5,80,107,91
India,Bihar,Muzaffarpur,"Muzaffarpur Collectorate, Muzaffarpur - BSPCB","27-01-2026 09:00:00",26.1209,85.3647,SO2,4,7,5
India,Bihar,Patna,"DRM Office Danapur, Patna - BSPCB","27-01-2026 09:00:00",25.586562,85.043586,PM10,80,223,121
India,Bihar,Begusarai,"Lohiyanagar, Begusarai - BSPCB","27-01-2026 09:00:00",25.42742023,86.13886079,PM10,NA,NA,NA
India,Bihar,Begusarai,"Lohiyanagar, Begusarai - BSPCB","27-01-2026 09:00:00",25.42742023,86.13886079,NH3,10,11,11
India,Bihar,Begusarai,"Lohiyanagar, Begusarai - BSPCB","27-01-2026 09:00:00",25.42742023,86.13886079,SO2,25,31,29
India,Bihar,Begusarai,"Lohiyanagar, Begusarai - BSPCB","27-01-2026 09:00:00",25.42742023,86.13886079,CO,10,30,12
India,Bihar,Bhagalpur,"DM Office_Kachari Chowk, Bhagalpur - BSPCB","27-01-2026 09:00:00",25.251013,86.989001,NO2,5,13,8
India,Bihar,Bhagalpur,"Mayaganj, Bhagalpur - BSPCB","27-01-2026 09:00:00",25.265194,87.012947,NO2,6,10,7
India,Bihar,Bhagalpur,"Mayaganj, Bhagalpur - BSPCB","27-01-2026 09:00:00",25.265194,87.012947,NH3,10,13,12
India,Bihar,Bhagalpur,"Mayaganj, Bhagalpur - BSPCB","27-01-2026 09:00:00",25.265194,87.012947,CO,78,96,87
India,Bihar,Buxar,"Charitra Van, Buxar - BSPCB","27-01-2026 09:00:00",25.567520,83.966379,NO2,9,10,9
India,Bihar,Chhapra,"Darshan Nagar, Chhapra - BSPCB","27-01-2026 09:00:00",25.7808257,84.7446768,PM10,40,138,96
India,Bihar,Rajgir,"Dangi Tola, Rajgir - BSPCB","27-01-2026 09:00:00",25.03280,85.41948,OZONE,30,34,32
India,Bihar,Saharsa,"Police Line, Saharsa - BSPCB","27-01-2026 09:00:00",25.892357,86.590325,PM2.5,12,192,87
India,Bihar,Siwan,"Chitragupta Nagar, Siwan - BSPCB","27-01-2026 09:00:00",26.2271665,84.3570427,NO2,1,5,2
India,Chandigarh,Chandigarh,"Sector 22, Chandigarh - CPCC","27-01-2026 09:00:00",30.735567,76.775714,PM2.5,85,303,135
India,Chandigarh,Chandigarh,"Sector 22, Chandigarh - CPCC","27-01-2026 09:00:00",30.735567,76.775714,NO2,34,124,69
India,Andhra_Pradesh,Tirupati,"Vaikuntapuram, Tirupati - APPCB","27-01-2026 09:00:00",13.615387,79.409230,PM2.5,55,58,56
India,Andhra_Pradesh,Tirupati,"Vaikuntapuram, Tirupati - APPCB","27-01-2026 09:00:00",13.615387,79.409230,PM10,68,73,71
India,Andhra_Pradesh,Vijayawada,"HB Colony, Vijayawada - APPCB","27-01-2026 09:00:00",16.536107,80.594233,PM2.5,49,73,60
India,Andhra_Pradesh,Vijayawada,"HB Colony, Vijayawada - APPCB","27-01-2026 09:00:00",16.536107,80.594233,CO,32,32,32
India,Andhra_Pradesh,Vijayawada,"Kanuru, Vijayawada - APPCB","27-01-2026 09:00:00",16.486692,80.699436,OZONE,22,22,22
India,Andhra_Pradesh,Vijayawada,"Rajiv Gandhi Park, Vijayawada - APPCB","27-01-2026 09:00:00",16.509717,80.612222,OZONE,7,46,16
India,Assam,Sivasagar,"Girls College, Sivasagar - PCBA","27-01-2026 09:00:00",26.987634,94.636574,PM2.5,NA,NA,NA
India,Assam,Sivasagar,"Girls College, Sivasagar - PCBA","27-01-2026 09:00:00",26.987634,94.636574,NO2,28,56,38
India,Bihar,Arrah,"New DM Office, Arrah - BSPCB","27-01-2026 09:00:00",25.5626095,84.663264,NH3,1,1,1
India,Bihar,Aurangabad,"Gurdeo Nagar, Aurangabad - BSPCB","27-01-2026 09:00:00",24.75746,84.366208,NO2,7,8,8
India,Bihar,Aurangabad,"Gurdeo Nagar, Aurangabad - BSPCB","27-01-2026 09:00:00",24.75746,84.366208,NH3,1,2,2
India,Bihar,Aurangabad,"Gurdeo Nagar, Aurangabad - BSPCB","27-01-2026 09:00:00",24.75746,84.366208,OZONE,NA,NA,NA
India,Delhi,Delhi,"Vivek Vihar, Delhi - DPCC","27-01-2026 09:00:00",28.672342,77.315260,PM10,122,491,306
India,Delhi,Delhi,"Vivek Vihar, Delhi - DPCC","27-01-2026 09:00:00",28.672342,77.315260,SO2,5,33,14
India,Delhi,Delhi,"Wazirpur, Delhi - DPCC","27-01-2026 09:00:00",28.699793,77.165453,NO2,181,302,258
India,Delhi,Delhi,"Wazirpur, Delhi - DPCC","27-01-2026 09:00:00",28.699793,77.165453,SO2,8,21,13
India,Gujarat,Ahmedabad,"Chandkheda, Ahmedabad - IITM","27-01-2026 09:00:00",23.107969,72.574648,PM10,122,194,161
India,Gujarat,Ahmedabad,"Chandkheda, Ahmedabad - IITM","27-01-2026 09:00:00",23.107969,72.574648,NO2,19,69,39
India,Gujarat,Ahmedabad,"Chandkheda, Ahmedabad - IITM","27-01-2026 09:00:00",23.107969,72.574648,SO2,5,18,11
India,Gujarat,Ahmedabad,"Chandkheda, Ahmedabad - IITM","27-01-2026 09:00:00",23.107969,72.574648,OZONE,1,54,6
India,Gujarat,Ahmedabad,"Gyaspur, Ahmedabad - IITM","27-01-2026 09:00:00",22.977134,72.553024,NH3,4,20,8
India,Gujarat,Ahmedabad,"Gyaspur, Ahmedabad - IITM","27-01-2026 09:00:00",22.977134,72.553024,CO,18,104,32
India,Gujarat,Ahmedabad,"Gyaspur, Ahmedabad - IITM","27-01-2026 09:00:00",22.977134,72.553024,OZONE,1,74,1
India,Gujarat,Ahmedabad,"Maninagar, Ahmedabad - GPCB","27-01-2026 09:00:00",23.002657,72.591912,PM10,97,163,131
India,Gujarat,Ahmedabad,"Maninagar, Ahmedabad - GPCB","27-01-2026 09:00:00",23.002657,72.591912,SO2,16,49,32
India,Gujarat,Ahmedabad,"Raikhad, Ahmedabad - IITM","27-01-2026 09:00:00",23.020509,72.579261,PM2.5,NA,NA,NA
India,Chhattisgarh,Chhal,"Nawapara SECL Colony, Chhal - CECB","27-01-2026 09:00:00",22.118125,83.140608,OZONE,3,89,5
India,Chhattisgarh,Korba,"Rampur, Korba - CECB","27-01-2026 09:00:00",22.368195,82.746431,PM10,NA,NA,NA
India,Chhattisgarh,Korba,"Rampur, Korba - CECB","27-01-2026 09:00:00",22.368195,82.746431,NO2,26,42,33
India,Chhattisgarh,Kunjemura,"OP Jindal School, Kunjemura - CECB","27-01-2026 09:00:00",22.126650,83.483212,OZONE,1,74,2
India,Chhattisgarh,Milupara,"Govt. Higher Secondary School, Milupara - CECB","27-01-2026 09:00:00",22.1910172,83.5197009,PM10,72,135,101
India,Chhattisgarh,Raipur,"AIIMS, Raipur - CECB","27-01-2026 09:00:00",21.258815,81.578979,PM2.5,43,162,95
India,Chhattisgarh,Raipur,"AIIMS, Raipur - CECB","27-01-2026 09:00:00",21.258815,81.578979,CO,35,78,66
India,Chhattisgarh,Raipur,"Krishak Nagar, Raipur - CECB","27-01-2026 09:00:00",21.237755,81.705301,NH3,2,2,2
India,Chhattisgarh,Raipur,"Siltara Phase-II, Raipur - CECB","27-01-2026 09:00:00",21.371751,81.664929,PM2.5,46,312,109
India,Chhattisgarh,Raipur,"Siltara Phase-II, Raipur - CECB","27-01-2026 09:00:00",21.371751,81.664929,PM10,44,124,96
India,Delhi,Delhi,"Alipur, Delhi - DPCC","27-01-2026 09:00:00",28.815329,77.153010,NO2,27,62,42
India,Delhi,Delhi,"Anand Vihar, Delhi - DPCC","27-01-2026 09:00:00",28.647622,77.3158090,PM2.5,170,500,370
India,Delhi,Delhi,"Anand Vihar, Delhi - DPCC","27-01-2026 09:00:00",28.647622,77.3158090,PM10,144,500,357
India,Delhi,Delhi,"Anand Vihar, Delhi - DPCC","27-01-2026 09:00:00",28.647622,77.3158090,NH3,6,14,9
India,Delhi,Delhi,"Ashok Vihar, Delhi - DPCC","27-01-2026 09:00:00",28.695381,77.181665,NO2,29,121,71
India,Delhi,Delhi,"Ashok Vihar, Delhi - DPCC","27-01-2026 09:00:00",28.695381,77.181665,SO2,7,27,16
India,Delhi,Delhi,"Bawana, Delhi - DPCC","27-01-2026 09:00:00",28.776200,77.051074,NO2,5,80,36
India,Delhi,Delhi,"CRRI Mathura Road, Delhi - IMD","27-01-2026 09:00:00",28.5512005,77.2735737,NO2,17,40,27
India,Delhi,Delhi,"CRRI Mathura Road, Delhi - IMD","27-01-2026 09:00:00",28.5512005,77.2735737,CO,29,128,111
India,Delhi,Delhi,"CRRI Mathura Road, Delhi - IMD","27-01-2026 09:00:00",28.5512005,77.2735737,OZONE,4,120,5
India,Delhi,Delhi,"DTU, Delhi - CPCB","27-01-2026 09:00:00",28.7500499,77.1112615,PM2.5,176,440,327
India,Delhi,Delhi,"DTU, Delhi - CPCB","27-01-2026 09:00:00",28.7500499,77.1112615,SO2,30,34,32
India,Delhi,Delhi,"DTU, Delhi - CPCB","27-01-2026 09:00:00",28.7500499,77.1112615,OZONE,9,34,10
India,Delhi,Delhi,"Dwarka-Sector 8, Delhi - DPCC ","27-01-2026 09:00:00",28.5710274,77.0719006,NO2,49,152,100
India,Delhi,Delhi,"Dwarka-Sector 8, Delhi - DPCC ","27-01-2026 09:00:00",28.5710274,77.0719006,NH3,11,20,15
India,Delhi,Delhi,"Dwarka-Sector 8, Delhi - DPCC ","27-01-2026 09:00:00",28.5710274,77.0719006,SO2,24,32,28
India,Delhi,Delhi,"IGI Airport (T3), Delhi - IMD","27-01-2026 09:00:00",28.5627763,77.1180053,NO2,51,112,86
India,Delhi,Delhi,"IHBAS, Dilshad Garden, Delhi - CPCB","27-01-2026 09:00:00",28.6811736,77.3025234,CO,46,102,83
India,Delhi,Delhi,"IIT Delhi, Delhi - IITM","27-01-2026 09:00:00",28.542460,77.191651,NO2,21,92,43
India,Delhi,Delhi,"IIT Delhi, Delhi - IITM","27-01-2026 09:00:00",28.542460,77.191651,CO,31,110,98
India,Delhi,Delhi,"ITO, Delhi - CPCB","27-01-2026 09:00:00",28.628624,77.241060,NH3,2,5,3
India,Delhi,Delhi,"Jahangirpuri, Delhi - DPCC","27-01-2026 09:00:00",28.732820,77.170633,NO2,108,175,131
India,Delhi,Delhi,"Jawaharlal Nehru Stadium, Delhi - DPCC","27-01-2026 09:00:00",28.580280,77.233829,OZONE,3,181,4
India,Delhi,Delhi,"Major Dhyan Chand National Stadium, Delhi - DPCC","27-01-2026 09:00:00",28.611281,77.237738,NO2,38,169,81
India,Delhi,Delhi,"Mandir Marg, Delhi - DPCC","27-01-2026 09:00:00",28.636429,77.201067,NH3,4,7,5
India,Delhi,Delhi,"Mundka, Delhi - DPCC","27-01-2026 09:00:00",28.684678,77.076574,PM2.5,98,500,325
India,Delhi,Delhi,"Mundka, Delhi - DPCC","27-01-2026 09:00:00",28.684678,77.076574,NH3,9,15,12
India,Delhi,Delhi,"Mundka, Delhi - DPCC","27-01-2026 09:00:00",28.684678,77.076574,CO,35,125,113
India,Delhi,Delhi,"NSIT Dwarka, Delhi - CPCB","27-01-2026 09:00:00",28.60909,77.0325413,SO2,10,22,15
India,Delhi,Delhi,"Najafgarh, Delhi - DPCC","27-01-2026 09:00:00",28.570173,76.933762,PM10,72,354,148
India,Delhi,Delhi,"Narela, Delhi - DPCC","27-01-2026 09:00:00",28.822836,77.101981,NH3,6,9,7
India,Delhi,Delhi,"Nehru Nagar, Delhi - DPCC","27-01-2026 09:00:00",28.567890,77.250515,PM10,135,494,301
India,Delhi,Delhi,"Nehru Nagar, Delhi - DPCC","27-01-2026 09:00:00",28.567890,77.250515,NH3,4,8,6
India,Delhi,Delhi,"Nehru Nagar, Delhi - DPCC","27-01-2026 09:00:00",28.567890,77.250515,OZONE,3,304,3
India,Delhi,Delhi,"North Campus, DU, Delhi - IMD","27-01-2026 09:00:00",28.6573814,77.1585447,PM2.5,148,455,303
India,Delhi,Delhi,"North Campus, DU, Delhi - IMD","27-01-2026 09:00:00",28.6573814,77.1585447,NO2,1,34,20
India,Delhi,Delhi,"Pusa, Delhi - DPCC","27-01-2026 09:00:00",28.639652,77.146275,PM10,133,294,187
India,Delhi,Delhi,"Pusa, Delhi - DPCC","27-01-2026 09:00:00",28.639652,77.146275,OZONE,2,78,2
India,Gujarat,Ahmedabad,"Raikhad, Ahmedabad - IITM","27-01-2026 09:00:00",23.020509,72.579261,SO2,11,41,19
India,Gujarat,Ahmedabad,"Rakhial, Ahmedabad - IITM","27-01-2026 09:00:00",23.016834,72.625775,CO,42,120,62
India,Gujarat,Ahmedabad,"SAC ISRO Satellite, Ahmedabad - IITM","27-01-2026 09:00:00",23.023389,72.515201,CO,10,78,24
India,Gujarat,Ankleshwar,"GIDC, Ankleshwar - GPCB","27-01-2026 09:00:00",21.613267,73.010555,CO,32,74,56
India,Gujarat,Gandhinagar,"GIFT City, Gandhinagar - IITM","27-01-2026 09:00:00",23.163798,72.677768,PM2.5,47,173,98
India,Delhi,Delhi,"Pusa, Delhi - IMD","27-01-2026 09:00:00",28.636110,77.173332,PM10,121,308,191
India,Delhi,Delhi,"Rohini, Delhi - DPCC","27-01-2026 09:00:00",28.732528,77.119920,PM2.5,237,483,375
India,Delhi,Delhi,"Sonia Vihar, Delhi - DPCC","27-01-2026 09:00:00",28.710508,77.249485,CO,73,121,115
India,Delhi,Delhi,"Sonia Vihar, Delhi - DPCC","27-01-2026 09:00:00",28.710508,77.249485,OZONE,3,190,4
India,Gujarat,Gandhinagar,"GIFT City, Gandhinagar - IITM","27-01-2026 09:00:00",23.163798,72.677768,PM10,128,193,162
India,Gujarat,Gandhinagar,"GIFT City, Gandhinagar - IITM","27-01-2026 09:00:00",23.163798,72.677768,NO2,18,61,34
India,Gujarat,Gandhinagar,"GIFT City, Gandhinagar - IITM","27-01-2026 09:00:00",23.163798,72.677768,NH3,5,12,8
India,Gujarat,Gandhinagar,"IIPHG Lekawada, Gandhinagar - IITM","27-01-2026 09:00:00",23.243639,72.68994,SO2,11,18,15
India,Gujarat,Gandhinagar,"IIPHG Lekawada, Gandhinagar - IITM","27-01-2026 09:00:00",23.243639,72.68994,OZONE,2,46,3
India,Gujarat,Gandhinagar,"Sector-10, Gandhinagar - GPCB","27-01-2026 09:00:00",23.221714,72.654328,PM10,98,165,130
India,Gujarat,Surat,"Science Center, Surat - SMC","27-01-2026 09:00:00",21.170046,72.795405,PM2.5,29,235,91
India,Gujarat,Surat,"Science Center, Surat - SMC","27-01-2026 09:00:00",21.170046,72.795405,NO2,14,48,31
India,Gujarat,Vatva,"Phase-4 GIDC, Vatva - GPCB","27-01-2026 09:00:00",22.969611,72.643500,PM10,71,284,174
India,Gujarat,Vatva,"Phase-4 GIDC, Vatva - GPCB","27-01-2026 09:00:00",22.969611,72.643500,CO,14,17,14
India,Haryana,Ambala,"Patti Mehar, Ambala - HSPCB","27-01-2026 09:00:00",30.379589,76.778328,OZONE,13,20,14
India,Haryana,Bahadurgarh,"Arya Nagar, Bahadurgarh - HSPCB","27-01-2026 09:00:00",28.6701,76.9254,PM2.5,54,308,187
India,Haryana,Manesar,"Sector-2 IMT, Manesar - HSPCB","27-01-2026 09:00:00",28.360699,76.936090,SO2,8,15,11
India,Haryana,Narnaul,"Shastri Nagar, Narnaul - HSPCB","27-01-2026 09:00:00",28.060249,76.113115,OZONE,8,41,10
India,Haryana,Palwal,"Shyam Nagar, Palwal - HSPCB","27-01-2026 09:00:00",28.1485564,77.3320667,PM2.5,65,304,101
India,Haryana,Palwal,"Shyam Nagar, Palwal - HSPCB","27-01-2026 09:00:00",28.1485564,77.3320667,CO,20,55,34
India,Haryana,Panchgaon,"Amity University, Panchgaon - IITM","27-01-2026 09:00:00",28.3153,76.9143,NO2,2,19,9
India,Haryana,Panchkula,"Sector-6, Panchkula - HSPCB ","27-01-2026 09:00:00",30.7057778,76.8531805555555,PM2.5,6,305,152
India,Haryana,Panchkula,"Sector-6, Panchkula - HSPCB ","27-01-2026 09:00:00",30.7057778,76.8531805555555,NO2,24,26,25
India,Haryana,Panchkula,"Sector-6, Panchkula - HSPCB ","27-01-2026 09:00:00",30.7057778,76.8531805555555,SO2,15,16,15
India,Haryana,Panchkula,"Sector-6, Panchkula - HSPCB ","27-01-2026 09:00:00",30.7057778,76.8531805555555,OZONE,5,13,12
India,Haryana,Panipat,"Sector-18, Panipat - HSPCB","27-01-2026 09:00:00",29.432304,76.972765,PM10,97,138,110
India,Haryana,Panipat,"Sector-18, Panipat - HSPCB","27-01-2026 09:00:00",29.432304,76.972765,CO,24,26,25
India,Karnataka,Bengaluru,"RVCE-Mailasandra, Bengaluru - KSPCB","27-01-2026 09:00:00",12.921418,77.502466,SO2,6,6,6
India,Karnataka,Bengaluru,"RVCE-Mailasandra, Bengaluru - KSPCB","27-01-2026 09:00:00",12.921418,77.502466,CO,1,27,13
India,Karnataka,Bengaluru,"Sanegurava Halli, Bengaluru - KSPCB","27-01-2026 09:00:00",12.990328,77.5431385,SO2,6,6,6
India,Karnataka,Bengaluru,"Silk Board, Bengaluru - KSPCB","27-01-2026 09:00:00",12.917348,77.622813,NO2,26,64,42
India,Karnataka,Bengaluru,"Silk Board, Bengaluru - KSPCB","27-01-2026 09:00:00",12.917348,77.622813,NH3,4,5,4
India,Karnataka,Bengaluru,"Silk Board, Bengaluru - KSPCB","27-01-2026 09:00:00",12.917348,77.622813,CO,18,62,30
India,Karnataka,Chamarajanagar,"Urban, Chamarajanagar - KSPCB","27-01-2026 09:00:00",11.55358,76.55521,SO2,2,5,3
India,Karnataka,Chamarajanagar,"Urban, Chamarajanagar - KSPCB","27-01-2026 09:00:00",11.55358,76.55521,OZONE,13,29,18
India,Karnataka,Chikkaballapur,"Chikkaballapur Rural, Chikkaballapur - KSPCB","27-01-2026 09:00:00",13.428828,77.731418,PM2.5,2,45,25
India,Karnataka,Chikkaballapur,"Chikkaballapur Rural, Chikkaballapur - KSPCB","27-01-2026 09:00:00",13.428828,77.731418,NO2,5,69,26
India,Karnataka,Chikkaballapur,"Chikkaballapur Rural, Chikkaballapur - KSPCB","27-01-2026 09:00:00",13.428828,77.731418,SO2,36,51,45
India,Karnataka,Chikkaballapur,"Chikkaballapur Rural, Chikkaballapur - KSPCB","27-01-2026 09:00:00",13.428828,77.731418,CO,2,14,6
India,Jammu_and_Kashmir,Srinagar,"Rajbagh, Srinagar - JKPCC","27-01-2026 09:00:00",34.066206,74.819820,SO2,3,4,3
India,Jharkhand,Dhanbad,"Sardar Patel Nagar, Dhanbad - JSPCB","27-01-2026 09:00:00",23.80569,86.44268,PM2.5,28,166,106
India,Karnataka,Bagalkot,"Vidayagiri, Bagalkot - KSPCB","27-01-2026 09:00:00",16.172806,75.659694,PM10,45,46,46
India,Karnataka,Bengaluru,"BWSSB Kadabesanahalli, Bengaluru - CPCB","27-01-2026 09:00:00",12.9352049,77.6814488,CO,37,38,38
India,Karnataka,Bengaluru,"Bapuji Nagar, Bengaluru - KSPCB","27-01-2026 09:00:00",12.951913,77.539784,PM2.5,9,62,26
India,Haryana,Hisar,"Urban Estate-II, Hisar - HSPCB","27-01-2026 09:00:00",29.140560,75.744941,CO,28,66,41
India,Haryana,Kaithal,"Rishi Nagar, Kaithal - HSPCB","27-01-2026 09:00:00",29.8006,76.4155,PM2.5,69,171,99
India,Haryana,Karnal,"Sector-12, Karnal - HSPCB","27-01-2026 09:00:00",29.695300,77.002700,PM10,97,152,129
India,Haryana,Kurukshetra,"Sector-7, Kurukshetra - HSPCB","27-01-2026 09:00:00",29.966942,76.875879,NO2,17,21,19
India,Haryana,Kurukshetra,"Sector-7, Kurukshetra - HSPCB","27-01-2026 09:00:00",29.966942,76.875879,CO,16,39,29
India,Haryana,Mandikhera,"General Hospital, Mandikhera(Nuh) - HSPCB","27-01-2026 09:00:00",27.9002,76.9938,NO2,20,24,22
India,Karnataka,Bengaluru,"Hebbal, Bengaluru - KSPCB","27-01-2026 09:00:00",13.029152,77.585901,CO,3,62,22
India,Karnataka,Bengaluru,"Hombegowda Nagar, Bengaluru - KSPCB","27-01-2026 09:00:00",12.938539,77.590100,PM2.5,13,55,29
India,Karnataka,Bengaluru,"Jigani, Bengaluru - KSPCB","27-01-2026 09:00:00",12.7816279,77.6299145,PM10,35,82,60
India,Karnataka,Bengaluru,"Jigani, Bengaluru - KSPCB","27-01-2026 09:00:00",12.7816279,77.6299145,NH3,3,3,3
India,Karnataka,Bengaluru,"Jigani, Bengaluru - KSPCB","27-01-2026 09:00:00",12.7816279,77.6299145,OZONE,23,24,23
India,Karnataka,Bengaluru,"Peenya, Bengaluru - CPCB","27-01-2026 09:00:00",13.0270199,77.494094,PM10,57,73,63
India,Karnataka,Bengaluru,"RVCE-Mailasandra, Bengaluru - KSPCB","27-01-2026 09:00:00",12.921418,77.502466,PM2.5,27,106,53
India,Haryana,Faridabad,"Sector 30, Faridabad - HSPCB","27-01-2026 09:00:00",28.4417,77.3217,PM2.5,62,68,64
India,Haryana,Fatehabad,"Huda Sector, Fatehabad - HSPCB","27-01-2026 09:00:00",29.503664,75.467934,NH3,13,14,14
India,Haryana,Fatehabad,"Huda Sector, Fatehabad - HSPCB","27-01-2026 09:00:00",29.503664,75.467934,SO2,10,11,11
India,Haryana,Gurugram,"Sector-51, Gurugram - HSPCB","27-01-2026 09:00:00",28.4227,77.0667,PM2.5,264,500,363
India,Haryana,Gurugram,"Vikas Sadan, Gurugram - HSPCB","27-01-2026 09:00:00",28.4501238,77.0263051,CO,63,115,97
India,Haryana,Sonipat,"Murthal, Sonipat - HSPCB","27-01-2026 09:00:00",29.027200,77.062100,PM2.5,55,265,136
India,Haryana,Sonipat,"Murthal, Sonipat - HSPCB","27-01-2026 09:00:00",29.027200,77.062100,PM10,53,113,85
India,"Himachal Pradesh",Baddi,"HIMUDA Complex Phase-1, Baddi - HPPCB","27-01-2026 09:00:00",30.943887,76.801991,CO,22,110,104
India,Jammu_and_Kashmir,Srinagar,"Rajbagh, Srinagar - JKPCC","27-01-2026 09:00:00",34.066206,74.819820,PM2.5,15,24,19
India,Haryana,Bahadurgarh,"Arya Nagar, Bahadurgarh - HSPCB","27-01-2026 09:00:00",28.6701,76.9254,NH3,12,13,13
India,Haryana,Bahadurgarh,"Arya Nagar, Bahadurgarh - HSPCB","27-01-2026 09:00:00",28.6701,76.9254,OZONE,15,19,17
India,Haryana,Bhiwani,"H.B. Colony, Bhiwani - HSPCB","27-01-2026 09:00:00",28.806223,76.141105,NH3,1,9,8
India,Haryana,Dharuhera,"Municipal Corporation Office, Dharuhera -  HSPCB","27-01-2026 09:00:00",28.206800,76.799700,PM2.5,131,427,287
India,"Madhya Pradesh",Sagar,"Deen Dayal Nagar, Sagar - MPPCB","27-01-2026 09:00:00",23.8640158,78.80289321,CO,12,28,15
India,"Madhya Pradesh",Satna,"Bandhavgar Colony, Satna - Birla Cement","27-01-2026 09:00:00",24.58434363,80.8549414,PM2.5,49,51,50
India,"Madhya Pradesh",Singrauli,"Suryakiran Bhawan NCL, Singrauli - MPPCB","27-01-2026 09:00:00",24.108970,82.645580,NH3,1,1,1
India,Maharashtra,Ahmednagar,"Tarakpur, Ahmednagar - MPCB","27-01-2026 09:00:00",19.10122,74.73339,PM10,66,147,101
India,Maharashtra,Ahmednagar,"Tarakpur, Ahmednagar - MPCB","27-01-2026 09:00:00",19.10122,74.73339,NH3,4,5,4
India,Maharashtra,Ahmednagar,"Tarakpur, Ahmednagar - MPCB","27-01-2026 09:00:00",19.10122,74.73339,SO2,2,41,18
India,Maharashtra,Akola,"Ramdaspeth, Akola - MPCB","27-01-2026 09:00:00",20.719516,77.000253,PM2.5,61,74,68
India,Maharashtra,Akola,"Ramdaspeth, Akola - MPCB","27-01-2026 09:00:00",20.719516,77.000253,PM10,76,98,86
India,Maharashtra,Akola,"Ramdaspeth, Akola - MPCB","27-01-2026 09:00:00",20.719516,77.000253,CO,17,24,18
India,Maharashtra,Akola,"Ramdaspeth, Akola - MPCB","27-01-2026 09:00:00",20.719516,77.000253,OZONE,12,62,14
India,Maharashtra,Amravati,"Shivneri Colony, Amravati - MPCB","27-01-2026 09:00:00",20.9402359,77.7895248,PM2.5,75,96,87
India,"Madhya Pradesh",Jabalpur,"Suhagi, Jabalpur - JMC","27-01-2026 09:00:00",23.218135,79.957770,PM10,69,157,99
India,"Madhya Pradesh",Jabalpur,"Suhagi, Jabalpur - JMC","27-01-2026 09:00:00",23.218135,79.957770,NO2,27,103,47
India,"Madhya Pradesh",Katni,"Gole Bazar, Katni - MPPCB","27-01-2026 09:00:00",23.50016,80.23284,PM2.5,58,321,113
India,"Madhya Pradesh",Katni,"Gole Bazar, Katni - MPPCB","27-01-2026 09:00:00",23.50016,80.23284,PM10,71,252,112
India,"Madhya Pradesh",Katni,"Gole Bazar, Katni - MPPCB","27-01-2026 09:00:00",23.50016,80.23284,NH3,3,4,4
India,"Madhya Pradesh",Katni,"Gole Bazar, Katni - MPPCB","27-01-2026 09:00:00",23.50016,80.23284,OZONE,7,166,48
India,"Madhya Pradesh",Mandideep,"Sector-D Industrial Area, Mandideep - MPPCB","27-01-2026 09:00:00",23.108440,77.511428,SO2,19,109,49
India,"Madhya Pradesh",Pithampur,"Sector-2 Industrial Area, Pithampur - MPPCB","27-01-2026 09:00:00",22.624758,75.675238,CO,11,28,21
India,"Madhya Pradesh",Ratlam,"Shasthri Nagar, Ratlam - IPCA Lab","27-01-2026 09:00:00",23.331731,75.045981,NO2,15,41,25
India,"Madhya Pradesh",Sagar,"Deen Dayal Nagar, Sagar - MPPCB","27-01-2026 09:00:00",23.8640158,78.80289321,PM10,54,153,115
India,Karnataka,Shivamogga,"Vinoba Nagara, Shivamogga - KSPCB","27-01-2026 09:00:00",13.940000,75.555917,SO2,1,5,3
India,Karnataka,Shivamogga,"Vinoba Nagara, Shivamogga - KSPCB","27-01-2026 09:00:00",13.940000,75.555917,CO,8,36,10
India,Karnataka,Tumakuru,"Thimmalapura, Tumakuru - KSPCB","27-01-2026 09:00:00",13.377516,77.099072,NO2,31,32,32
India,Karnataka,Tumakuru,"Thimmalapura, Tumakuru - KSPCB","27-01-2026 09:00:00",13.377516,77.099072,CO,52,54,54
India,Karnataka,Vijayapura,"Ibrahimpur, Vijayapura - KSPCB","27-01-2026 09:00:00",16.802639,75.722694,NO2,11,12,11
India,Karnataka,Vijayapura,"Ibrahimpur, Vijayapura - KSPCB","27-01-2026 09:00:00",16.802639,75.722694,NH3,1,2,1
India,Karnataka,Yadgir,"Collector Office, Yadgir - KSPCB","27-01-2026 09:00:00",16.7602,77.1428,SO2,5,18,13
India,Kerala,Eloor,"Udyogamandal, Eloor - Kerala PCB","27-01-2026 09:00:00",10.073232,76.302765,NO2,6,7,6
India,Kerala,Eloor,"Udyogamandal, Eloor - Kerala PCB","27-01-2026 09:00:00",10.073232,76.302765,OZONE,13,20,15
India,Kerala,Kannur,"Thavakkara, Kannur - Kerala PCB","27-01-2026 09:00:00",11.875000,75.373200,SO2,NA,NA,NA
India,Kerala,Kannur,"Thavakkara, Kannur - Kerala PCB","27-01-2026 09:00:00",11.875000,75.373200,CO,NA,NA,NA
India,Kerala,Kannur,"Thavakkara, Kannur - Kerala PCB","27-01-2026 09:00:00",11.875000,75.373200,OZONE,NA,NA,NA
India,Kerala,Kollam,"Polayathode, Kollam - Kerala PCB","27-01-2026 09:00:00",8.8787,76.6073,NH3,1,1,1
India,Kerala,Thiruvananthapuram,"Plammoodu, Thiruvananthapuram - Kerala PCB","27-01-2026 09:00:00",8.5149093,76.9435879,CO,11,22,16
India,Kerala,Thrissur,"Corporation Ground, Thrissur - Kerala PCB","27-01-2026 09:00:00",10.532400,76.215900,CO,NA,NA,NA
India,"Madhya Pradesh",Bhopal,"Idgah Hills, Bhopal - MPPCB","27-01-2026 09:00:00",23.264759,77.381568,OZONE,34,129,62
India,"Madhya Pradesh",Bhopal,"Paryavaran Parisar, Bhopal - MPPCB","27-01-2026 09:00:00",23.210494,77.425409,SO2,4,13,10
India,"Madhya Pradesh",Bhopal,"T T Nagar, Bhopal - MPPCB","27-01-2026 09:00:00",23.233584,77.400574,NH3,7,8,8
India,Karnataka,Davanagere,"Devaraj Urs Badavane, Davanagere - KSPCB","27-01-2026 09:00:00",14.475800,75.905200,PM2.5,4,42,18
India,Karnataka,Davanagere,"Devaraj Urs Badavane, Davanagere - KSPCB","27-01-2026 09:00:00",14.475800,75.905200,SO2,1,4,3
India,Karnataka,Davanagere,"Devaraj Urs Badavane, Davanagere - KSPCB","27-01-2026 09:00:00",14.475800,75.905200,OZONE,18,32,20
India,Karnataka,Hubballi,"Lingaraj Nagar, Hubballi - KSPCB","27-01-2026 09:00:00",15.3714823,75.1160168,CO,6,33,8
India,Karnataka,Kalaburagi,"Mahatma Basaveswar Colony, Kalaburgi - KSPCB","27-01-2026 09:00:00",17.336318,76.847397,PM10,17,78,56
India,Karnataka,Kalaburagi,"Mahatma Basaveswar Colony, Kalaburgi - KSPCB","27-01-2026 09:00:00",17.336318,76.847397,SO2,3,7,5
India,Karnataka,Ramanagara,"Vijay Nagar, Ramanagara - KSPCB","27-01-2026 09:00:00",12.733409,77.298051,PM2.5,6,60,22
India,Karnataka,Ramanagara,"Vijay Nagar, Ramanagara - KSPCB","27-01-2026 09:00:00",12.733409,77.298051,NH3,2,2,2
India,"Madhya Pradesh",Indore,"Regional Park, Indore - IMC","27-01-2026 09:00:00",22.6780,75.8559,CO,10,18,13
India,"Madhya Pradesh",Indore,"Residency Area, Indore - IMC","27-01-2026 09:00:00",22.7084,75.8815,PM2.5,53,189,83
India,"Madhya Pradesh",Jabalpur,"Govindh Bhavan Colony, Jabalpur - JMC","27-01-2026 09:00:00",23.163174,79.973061,OZONE,NA,NA,NA
India,"Madhya Pradesh",Jabalpur,"Gupteshwar, Jabalpur - JMC","27-01-2026 09:00:00",23.142888,79.916147,PM2.5,77,202,128
India,"Madhya Pradesh",Jabalpur,"Gupteshwar, Jabalpur - JMC","27-01-2026 09:00:00",23.142888,79.916147,SO2,11,17,15
India,"Madhya Pradesh",Jabalpur,"Marhatal, Jabalpur - MPPCB","27-01-2026 09:00:00",23.168606,79.932247,CO,33,111,43
India,"Madhya Pradesh",Dewas,"Bhopal Chauraha, Dewas - MPPCB","27-01-2026 09:00:00",22.9682591,76.064118,OZONE,8,100,21
India,"Madhya Pradesh",Gwalior,"City Center, Gwalior - MPPCB","27-01-2026 09:00:00",26.203442,78.193251,NO2,22,57,33
India,"Madhya Pradesh",Gwalior,"City Center, Gwalior - MPPCB","27-01-2026 09:00:00",26.203442,78.193251,CO,37,89,62
India,"Madhya Pradesh",Gwalior,"City Center, Gwalior - MPPCB","27-01-2026 09:00:00",26.203442,78.193251,OZONE,13,68,13
India,"Madhya Pradesh",Indore,"Airport Area, Indore - IMC","27-01-2026 09:00:00",22.7289,75.8076,OZONE,7,16,12
India,Maharashtra,Aurangabad,"More Chowk Waluj, Aurangabad - MPCB","27-01-2026 09:00:00",19.8389439,75.244448,NH3,NA,NA,NA
India,Maharashtra,Aurangabad,"Rachnakar Colony, Aurangabad - MPCB","27-01-2026 09:00:00",19.863756,75.321188,NO2,13,60,24
India,Maharashtra,Aurangabad,"Rachnakar Colony, Aurangabad - MPCB","27-01-2026 09:00:00",19.863756,75.321188,CO,14,31,21
India,Maharashtra,Badlapur,"Katrap, Badlapur - MPCB","27-01-2026 09:00:00",19.16485,73.23409,PM2.5,NA,NA,NA
India,Maharashtra,Badlapur,"Katrap, Badlapur - MPCB","27-01-2026 09:00:00",19.16485,73.23409,CO,NA,NA,NA
India,Maharashtra,Amravati,"Shri Shivaji Science College, Amravati - MPCB","27-01-2026 09:00:00",20.939198,77.765701,PM10,95,155,118
India,Maharashtra,Mumbai,"Borivali East, Mumbai - IITM","27-01-2026 09:00:00",19.23241,72.86895,CO,86,96,92
India,Maharashtra,Mumbai,"Borivali East, Mumbai - MPCB","27-01-2026 09:00:00",19.2243333,72.8658113,PM2.5,41,65,54
India,Maharashtra,Mumbai,"Borivali East, Mumbai - MPCB","27-01-2026 09:00:00",19.2243333,72.8658113,OZONE,17,20,18
India,Maharashtra,Mumbai,"Byculla, Mumbai - BMC","27-01-2026 09:00:00",18.9767,72.8380,CO,38,80,43
India,Maharashtra,Mumbai,"Chakala-Andheri East, Mumbai - IITM","27-01-2026 09:00:00",19.11074,72.86084,PM10,104,147,125
India,Maharashtra,Mumbai,"Chembur, Mumbai - MPCB","27-01-2026 09:00:00",19.0364585,72.8954371,PM2.5,67,115,85
India,Maharashtra,Mumbai,"Chembur, Mumbai - MPCB","27-01-2026 09:00:00",19.0364585,72.8954371,NO2,22,73,39
India,Maharashtra,Mumbai,"Chembur, Mumbai - MPCB","27-01-2026 09:00:00",19.0364585,72.8954371,OZONE,13,73,24
India,Maharashtra,Mumbai,"Chhatrapati Shivaji Intl. Airport (T2), Mumbai - MPCB","27-01-2026 09:00:00",19.10078,72.87462,NO2,1,1,1
India,Maharashtra,Mumbai,"Chhatrapati Shivaji Intl. Airport (T2), Mumbai - MPCB","27-01-2026 09:00:00",19.10078,72.87462,OZONE,7,8,7
India,Maharashtra,Mumbai,"Colaba, Mumbai - MPCB","27-01-2026 09:00:00",18.910000,72.820000,CO,62,69,63
India,Maharashtra,Mumbai,"Deonar, Mumbai - IITM","27-01-2026 09:00:00",19.04946,72.9230,NO2,11,52,26
India,Maharashtra,Mumbai,"Deonar, Mumbai - IITM","27-01-2026 09:00:00",19.04946,72.9230,SO2,3,16,7
India,Maharashtra,Mumbai,"Deonar, Mumbai - IITM","27-01-2026 09:00:00",19.04946,72.9230,CO,39,76,58
India,Maharashtra,Mumbai,"Ghatkopar, Mumbai - BMC","27-01-2026 09:00:00",19.083694,72.920967,CO,4,28,11
India,Maharashtra,Mumbai,"Kandivali East, Mumbai - MPCB","27-01-2026 09:00:00",19.205800,72.868200,NH3,3,3,3
India,Maharashtra,Mumbai,"Kandivali East, Mumbai - MPCB","27-01-2026 09:00:00",19.205800,72.868200,CO,19,20,20
India,Maharashtra,Mumbai,"Kandivali East, Mumbai - MPCB","27-01-2026 09:00:00",19.205800,72.868200,OZONE,17,18,18
India,Maharashtra,Mumbai,"Kandivali West, Mumbai - BMC","27-01-2026 09:00:00",19.215859,72.831718,PM2.5,NA,NA,NA
India,Maharashtra,Mumbai,"Kandivali West, Mumbai - BMC","27-01-2026 09:00:00",19.215859,72.831718,PM10,NA,NA,NA
India,Maharashtra,Mumbai,"Kherwadi_Bandra East, Mumbai - MPCB","27-01-2026 09:00:00",19.0632143,72.8456324,SO2,3,4,3
India,Maharashtra,Mumbai,"Khindipada-Bhandup West, Mumbai - IITM","27-01-2026 09:00:00",19.1653323,72.922099,CO,8,40,19
India,Maharashtra,Mahad,"Kamble Tarf Birwadi, Mahad - MPCB","27-01-2026 09:00:00",18.1023399,73.4783687,OZONE,2,65,22
India,Maharashtra,Malegaon,"Mahesh Nagar, Malegaon - MPCB","27-01-2026 09:00:00",20.555712,74.529236,NH3,1,2,1
India,Maharashtra,Malegaon,"Mahesh Nagar, Malegaon - MPCB","27-01-2026 09:00:00",20.555712,74.529236,OZONE,6,45,26
India,Maharashtra,Mira-Bhayandar,"Bhayandar West, Mira-Bhayandar - MPCB","27-01-2026 09:00:00",19.296481,72.840923,PM10,82,167,115
India,Maharashtra,Mumbai,"Bandra Kurla Complex, Mumbai - IITM","27-01-2026 09:00:00",19.053536,72.84643,CO,NA,NA,NA
India,Maharashtra,Mumbai,"Bandra Kurla Complex, Mumbai - MPCB","27-01-2026 09:00:00",19.065931,72.862131,PM10,NA,NA,NA
India,Maharashtra,Mumbai,"Borivali East, Mumbai - IITM","27-01-2026 09:00:00",19.23241,72.86895,NH3,1,4,2
India,Maharashtra,Belapur,"CBD Belapur, Belapur - MPCB","27-01-2026 09:00:00",19.0243902,73.0406721,OZONE,1,60,5
India,Maharashtra,Bhiwandi,"Gokul Nagar, Bhiwandi - MPCB","27-01-2026 09:00:00",19.309073,73.057223,CO,24,64,44
India,Maharashtra,Boisar,"Khaira, Boisar - MPCB","27-01-2026 09:00:00",19.786089,72.757971,OZONE,3,83,19
India,Maharashtra,Chandrapur,"MIDC Khutala, Chandrapur - MPCB","27-01-2026 09:00:00",19.9775302,79.2337086,NO2,NA,NA,NA
India,Maharashtra,Chandrapur,"MIDC Khutala, Chandrapur - MPCB","27-01-2026 09:00:00",19.9775302,79.2337086,SO2,8,9,9
India,Maharashtra,Dhule,"Deopur, Dhule - MPCB","27-01-2026 09:00:00",20.918946,74.776388,PM2.5,50,197,82
India,Maharashtra,Dhule,"Deopur, Dhule - MPCB","27-01-2026 09:00:00",20.918946,74.776388,NH3,1,2,1
India,Maharashtra,Mumbai,"Malad West, Mumbai - IITM","27-01-2026 09:00:00",19.19709,72.82204,NH3,7,15,9
India,Maharashtra,Mumbai,"Malad West, Mumbai - IITM","27-01-2026 09:00:00",19.19709,72.82204,CO,15,66,19
India,Maharashtra,Mumbai,"Malad West, Mumbai - IITM","27-01-2026 09:00:00",19.19709,72.82204,OZONE,4,10,8
India,Maharashtra,Mumbai,"Mazgaon, Mumbai - IITM","27-01-2026 09:00:00",18.96702,72.84214,PM10,77,122,101
India,Maharashtra,Mumbai,"Mazgaon, Mumbai - IITM","27-01-2026 09:00:00",18.96702,72.84214,NH3,12,16,14
India,Maharashtra,Mumbai,"Mazgaon, Mumbai - IITM","27-01-2026 09:00:00",18.96702,72.84214,SO2,3,12,8
India,Maharashtra,Mumbai,"Mindspace-Malad West, Mumbai - MPCB","27-01-2026 09:00:00",19.1878657,72.8304069,PM2.5,43,335,99
India,Maharashtra,Mumbai,"Mindspace-Malad West, Mumbai - MPCB","27-01-2026 09:00:00",19.1878657,72.8304069,NO2,10,74,28
India,Maharashtra,Jalna,"Old MIDC, Jalna - MPCB","27-01-2026 09:00:00",19.854616,75.905894,PM2.5,75,117,92
India,Maharashtra,Jalna,"Old MIDC, Jalna - MPCB","27-01-2026 09:00:00",19.854616,75.905894,NO2,38,49,43
India,Maharashtra,Jalna,"Old MIDC, Jalna - MPCB","27-01-2026 09:00:00",19.854616,75.905894,NH3,2,4,4
India,Maharashtra,Jalna,"Old MIDC, Jalna - MPCB","27-01-2026 09:00:00",19.854616,75.905894,CO,22,35,28
India,Maharashtra,Jalna,"Old MIDC, Jalna - MPCB","27-01-2026 09:00:00",19.854616,75.905894,OZONE,9,61,11
India,Maharashtra,Kalyan,"Khadakpada, Kalyan - MPCB","27-01-2026 09:00:00",19.25292,73.142019,PM10,72,172,116
India,Maharashtra,Kalyan,"Pimpleshwar Mandir, Kalyan - MPCB","27-01-2026 09:00:00",19.192056,72.9585188,OZONE,11,106,34
India,Maharashtra,Mumbai,"Sion, Mumbai - MPCB","27-01-2026 09:00:00",19.047000,72.874600,CO,10,18,18
India,Maharashtra,Nagpur,"Mahal, Nagpur - MPCB","27-01-2026 09:00:00",21.14472,79.107595,PM10,90,162,133
India,Maharashtra,Nagpur,"Mahal, Nagpur - MPCB","27-01-2026 09:00:00",21.14472,79.107595,NO2,26,95,52
India,Maharashtra,Nagpur,"Mahal, Nagpur - MPCB","27-01-2026 09:00:00",21.14472,79.107595,NH3,6,7,7
India,Maharashtra,Mumbai,"Mulund West, Mumbai - MPCB","27-01-2026 09:00:00",19.1750,72.9419,PM2.5,43,112,72
India,Maharashtra,Mumbai,"Mulund West, Mumbai - MPCB","27-01-2026 09:00:00",19.1750,72.9419,NO2,16,20,18
India,Maharashtra,Mumbai,"Navy Nagar-Colaba, Mumbai - IITM","27-01-2026 09:00:00",18.897756,72.813320,NO2,19,181,57
India,Maharashtra,Mumbai,"Kurla, Mumbai - MPCB","27-01-2026 09:00:00",19.0863,72.8888,NO2,6,7,7
India,Maharashtra,Parbhani,"Masoom Colony, Parbhani - MPCB","27-01-2026 09:00:00",19.265594,76.761463,SO2,6,14,11
India,Maharashtra,Pimpri-Chinchwad,"Gavalinagar, Pimpri Chinchwad - MPCB","27-01-2026 09:00:00",18.63673,73.82487,PM10,61,145,94
India,Maharashtra,Pimpri-Chinchwad,"Gavalinagar, Pimpri Chinchwad - MPCB","27-01-2026 09:00:00",18.63673,73.82487,NO2,14,58,33
India,Maharashtra,Pimpri-Chinchwad,"Thergaon, Pimpri Chinchwad - MPCB","27-01-2026 09:00:00",18.616318,73.765797,PM10,75,136,96
India,Maharashtra,Pimpri-Chinchwad,"Thergaon, Pimpri Chinchwad - MPCB","27-01-2026 09:00:00",18.616318,73.765797,NO2,19,81,52
India,Maharashtra,Pune,"Bhosari, Pune - IITM","27-01-2026 09:00:00",18.640051,73.848956,CO,10,78,29
India,Maharashtra,Pune,"Bhumkar Nagar, Pune - IITM","27-01-2026 09:00:00",18.605770,73.749976,PM10,67,193,107
India,Maharashtra,Pune,"Bhumkar Nagar, Pune - IITM","27-01-2026 09:00:00",18.605770,73.749976,CO,26,156,74
India,Maharashtra,Pune,"Bhumkar Nagar, Pune - IITM","27-01-2026 09:00:00",18.605770,73.749976,OZONE,1,130,10
India,Maharashtra,Pune,"Dhankawadi, Pune - IITM","27-01-2026 09:00:00",18.459883,73.852193,PM10,52,176,98
India,Maharashtra,Pune,"Katraj Dairy, Pune - MPCB","27-01-2026 09:00:00",18.454450,73.854155,PM10,52,125,79
India,Maharashtra,Pune,"Katraj Dairy, Pune - MPCB","27-01-2026 09:00:00",18.454450,73.854155,SO2,NA,NA,NA
India,Maharashtra,Pune,"Mhada Colony, Pune - IITM","27-01-2026 09:00:00",18.573040,73.927715,OZONE,16,110,19
India,Maharashtra,Pune,"Panchawati_Pashan, Pune - IITM","27-01-2026 09:00:00",18.536457,73.805454,OZONE,NA,NA,NA
India,Maharashtra,Pune,"Revenue Colony-Shivajinagar, Pune - IITM","27-01-2026 09:00:00",18.530085,73.849598,CO,46,109,59
India,Maharashtra,Pune,"Savitribai Phule Pune University, Pune - MPCB","27-01-2026 09:00:00",18.547056,73.826908,PM2.5,NA,NA,NA
India,Maharashtra,Pune,"Savitribai Phule Pune University, Pune - MPCB","27-01-2026 09:00:00",18.547056,73.826908,OZONE,NA,NA,NA
India,Maharashtra,Pune,"Transport Nagar-Nigdi, Pune - IITM","27-01-2026 09:00:00",18.664282,73.763966,PM2.5,42,166,73
India,Maharashtra,Sangli,"Vijay Nagar, Sangli - MPCB","27-01-2026 09:00:00"," 16.5038",74.3623,SO2,12,13,12
India,Maharashtra,Nashik,"Pandav Nagari, Nashik - MPCB","27-01-2026 09:00:00",19.9591346,73.7788008,CO,18,82,58
India,Maharashtra,"Navi Mumbai","Mahape, Navi Mumbai - MPCB","27-01-2026 09:00:00",19.1135051,73.008978,CO,20,20,20
India,Maharashtra,"Navi Mumbai","Nerul, Navi Mumbai - MPCB","27-01-2026 09:00:00",19.008751,73.016620,NO2,39,39,39
India,Maharashtra,"Navi Mumbai","Nerul, Navi Mumbai - MPCB","27-01-2026 09:00:00",19.008751,73.016620,NH3,5,5,5
India,Maharashtra,"Navi Mumbai","Sanpada, Navi Mumbai - MPCB","27-01-2026 09:00:00",19.0575752,73.0151367,PM2.5,68,180,109
India,Maharashtra,"Navi Mumbai","Sector-2E Kalamboli, Navi Mumbai - MPCB","27-01-2026 09:00:00",19.02579,73.10297,NH3,8,15,12
India,Maharashtra,"Navi Mumbai","Sector-2E Kalamboli, Navi Mumbai - MPCB","27-01-2026 09:00:00",19.02579,73.10297,CO,1,74,24
India,Maharashtra,Parbhani,"Masoom Colony, Parbhani - MPCB","27-01-2026 09:00:00",19.265594,76.761463,PM2.5,66,123,89
India,Maharashtra,Parbhani,"Masoom Colony, Parbhani - MPCB","27-01-2026 09:00:00",19.265594,76.761463,PM10,81,112,97
India,Meghalaya,Shillong,"Lumpyngngad, Shillong - Meghalaya PCB","27-01-2026 09:00:00",25.5586,91.8985,OZONE,22,35,31
India,Mizoram,Aizawl,"Sikulpuikawn, Aizawl - Mizoram PCB","27-01-2026 09:00:00",23.7176342,92.7192841,OZONE,3,8,6
India,Odisha,Angul,"Hakimapada, Angul - OSPCB","27-01-2026 09:00:00",20.832874,85.104082,PM2.5,157,311,218
India,Odisha,Angul,"Hakimapada, Angul - OSPCB","27-01-2026 09:00:00",20.832874,85.104082,PM10,129,205,162
India,Odisha,Balasore,"Kalidaspur, Balasore - OSPCB","27-01-2026 09:00:00",21.51161,86.89088,SO2,11,50,25
India,Odisha,Balasore,"Kalidaspur, Balasore - OSPCB","27-01-2026 09:00:00",21.51161,86.89088,CO,10,103,30
India,Maharashtra,Solapur,"Dnyaneshwar Nagar, Solapur - MPCB","27-01-2026 09:00:00",17.6336264,75.9132495,NH3,NA,NA,NA
India,Maharashtra,Thane,"Kasarvadavali, Thane - MPCB","27-01-2026 09:00:00",19.26777,72.97182,SO2,14,37,20
India,Maharashtra,Thane,"Kasarvadavali, Thane - MPCB","27-01-2026 09:00:00",19.26777,72.97182,OZONE,13,71,21
India,Maharashtra,Thane,"Upvan Fort, Thane - MPCB","27-01-2026 09:00:00",19.222279,72.957979,PM2.5,57,159,93
India,Maharashtra,Thane,"Upvan Fort, Thane - MPCB","27-01-2026 09:00:00",19.222279,72.957979,NO2,47,51,49
India,Maharashtra,Thane,"Upvan Fort, Thane - MPCB","27-01-2026 09:00:00",19.222279,72.957979,OZONE,28,65,40
India,Maharashtra,Virar,"Bolinj, Virar - MPCB","27-01-2026 09:00:00",19.4458210,72.7988231,PM2.5,73,198,107
India,Odisha,Baripada,"Meher Colony, Baripada - OSPCB","27-01-2026 09:00:00",21.941841,86.728318,NO2,1,47,19
India,Odisha,Baripada,"Meher Colony, Baripada - OSPCB","27-01-2026 09:00:00",21.941841,86.728318,OZONE,4,50,26
India,Odisha,Bhubaneswar,"Lingraj Mandir, Bhubaneswar - OSPCB","27-01-2026 09:00:00",20.240790,85.836784,CO,67,117,86
India,Odisha,Brajrajnagar,"GM Office, Brajrajnagar - OSPCB","27-01-2026 09:00:00",21.8004996,83.8396977,PM2.5,33,341,154
India,Odisha,Brajrajnagar,"GM Office, Brajrajnagar - OSPCB","27-01-2026 09:00:00",21.8004996,83.8396977,SO2,20,30,23
India,Odisha,Byasanagar,"Ferro Chrome Colony, Byasanagar - OSPCB","27-01-2026 09:00:00",20.94185,86.11510,NO2,16,44,25
India,Maharashtra,Nashik,"Gangapur Road, Nashik - MPCB","27-01-2026 09:00:00",20.0073285,73.7762427,NH3,3,3,3
India,Maharashtra,Nashik,"Hirawadi, Nashik - MPCB","27-01-2026 09:00:00",20.021503,73.813844,PM2.5,55,134,73
India,Maharashtra,Nashik,"Hirawadi, Nashik - MPCB","27-01-2026 09:00:00",20.021503,73.813844,PM10,68,126,93
India,Maharashtra,Nashik,"Hirawadi, Nashik - MPCB","27-01-2026 09:00:00",20.021503,73.813844,CO,42,69,53
India,Maharashtra,Nashik,"MIDC Ambad, Nashik - MPCB","27-01-2026 09:00:00",19.950220,73.731480,NO2,7,84,33
India,Maharashtra,Nashik,"MIDC Ambad, Nashik - MPCB","27-01-2026 09:00:00",19.950220,73.731480,NH3,2,3,3
India,Maharashtra,Nashik,"MIDC Ambad, Nashik - MPCB","27-01-2026 09:00:00",19.950220,73.731480,SO2,17,20,18
India,Maharashtra,Nagpur,"Opp GPO Civil Lines, Nagpur - MPCB","27-01-2026 09:00:00",21.152875,79.0517531,NO2,13,59,29
India,Maharashtra,Nagpur,"Ram Nagar, Nagpur - MPCB","27-01-2026 09:00:00",21.143383,79.048912,PM2.5,90,223,168
India,Odisha,Barbil,"Forest Office, Barbil - OSPCB","27-01-2026 09:00:00",22.1166054,85.3945546,SO2,11,117,28
India,Odisha,Suakati,"OMC Colony, Suakati - OSPCB","27-01-2026 09:00:00",21.606865,85.510538,CO,23,32,27
India,Odisha,Talcher,"Talcher Coalfields,Talcher - OSPCB","27-01-2026 09:00:00",20.9360711,85.1707021,NH3,6,8,7
India,Odisha,Talcher,"Talcher Coalfields,Talcher - OSPCB","27-01-2026 09:00:00",20.9360711,85.1707021,SO2,9,49,29
India,Odisha,Tensa,"Barsua Iron Ore Mines, Tensa - OSPCB","27-01-2026 09:00:00",21.869985,85.167016,NO2,NA,NA,NA
India,Puducherry,Puducherry,"Jawahar Nagar, Puducherry - PPCC","27-01-2026 09:00:00",11.9309,79.8027,PM10,23,68,40
India,Puducherry,Puducherry,"Jawahar Nagar, Puducherry - PPCC","27-01-2026 09:00:00",11.9309,79.8027,SO2,3,13,8
India,Puducherry,Puducherry,"Jawahar Nagar, Puducherry - PPCC","27-01-2026 09:00:00",11.9309,79.8027,OZONE,9,51,13
India,Punjab,Amritsar,"Golden Temple, Amritsar - PPCB","27-01-2026 09:00:00",31.620000,74.876512,SO2,13,34,22
India,Punjab,Amritsar,"Golden Temple, Amritsar - PPCB","27-01-2026 09:00:00",31.620000,74.876512,CO,26,68,35
India,Punjab,Bathinda,"Hardev Nagar, Bathinda - PPCB","27-01-2026 09:00:00",30.233011,74.907758,PM2.5,32,90,58
India,Punjab,Bathinda,"Hardev Nagar, Bathinda - PPCB","27-01-2026 09:00:00",30.233011,74.907758,NO2,17,22,20
India,Punjab,Jalandhar,"Civil Line, Jalandhar - PPCB","27-01-2026 09:00:00",31.321907,75.578914,PM10,71,140,98
India,Punjab,Jalandhar,"Civil Line, Jalandhar - PPCB","27-01-2026 09:00:00",31.321907,75.578914,NH3,6,6,6
India,Punjab,Jalandhar,"Civil Line, Jalandhar - PPCB","27-01-2026 09:00:00",31.321907,75.578914,SO2,18,19,19
India,Rajasthan,Bhiwadi,"RIICO Ind. Area III, Bhiwadi - RSPCB","27-01-2026 09:00:00",28.194909,76.862296,NH3,3,20,11
India,Rajasthan,Bhiwadi,"RIICO Ind. Area III, Bhiwadi - RSPCB","27-01-2026 09:00:00",28.194909,76.862296,SO2,5,58,24
India,Rajasthan,Bhiwadi,"Vasundhara Nagar_UIT, Bhiwadi - RSPCB","27-01-2026 09:00:00",28.207266,76.829265,NH3,5,6,6
India,Rajasthan,Bhiwadi,"Vasundhara Nagar_UIT, Bhiwadi - RSPCB","27-01-2026 09:00:00",28.207266,76.829265,SO2,11,114,34
India,Rajasthan,Bhiwadi,"Vasundhara Nagar_UIT, Bhiwadi - RSPCB","27-01-2026 09:00:00",28.207266,76.829265,CO,38,123,51
India,Rajasthan,Bhiwadi,"Vasundhara Nagar_UIT, Bhiwadi - RSPCB","27-01-2026 09:00:00",28.207266,76.829265,OZONE,5,145,17
India,Rajasthan,Bikaner,"MM Ground, Bikaner - RSPCB","27-01-2026 09:00:00",28.018792,73.292658,SO2,5,18,10
India,Rajasthan,Bundi,"New Colony, Bundi - RSPCB","27-01-2026 09:00:00",25.435774,75.644272,NO2,20,51,32
India,Rajasthan,Chittorgarh,"Shastri Nagar, Chittorgarh - RSPCB","27-01-2026 09:00:00",24.892047,74.623527,SO2,7,139,57
India,Rajasthan,Churu,"Subash Chowk, Churu - RSPCB","27-01-2026 09:00:00",28.296139,74.961696,PM10,118,282,162
India,Rajasthan,Churu,"Subash Chowk, Churu - RSPCB","27-01-2026 09:00:00",28.296139,74.961696,OZONE,21,120,41
India,Odisha,Byasanagar,"Ferro Chrome Colony, Byasanagar - OSPCB","27-01-2026 09:00:00",20.94185,86.11510,OZONE,42,232,51
India,Odisha,Cuttack,"CDA Area, Cuttack - OSPCB","27-01-2026 09:00:00","20.48891     ","85.84768     ",PM2.5,90,220,143
India,Odisha,Cuttack,"CDA Area, Cuttack - OSPCB","27-01-2026 09:00:00","20.48891     ","85.84768     ",PM10,113,241,160
India,Odisha,Keonjhar,"Jagamohanpur, Keonjhar - OSPCB","27-01-2026 09:00:00",21.643900,85.599355,OZONE,15,19,17
India,Odisha,Rairangpur,"Divisional Forest Office, Rairangpur - OSPCB","27-01-2026 09:00:00",22.265816,86.174829,NO2,11,11,11
India,Odisha,Rairangpur,"Divisional Forest Office, Rairangpur - OSPCB","27-01-2026 09:00:00",22.265816,86.174829,NH3,1,1,1
India,Odisha,Rairangpur,"Divisional Forest Office, Rairangpur - OSPCB","27-01-2026 09:00:00",22.265816,86.174829,OZONE,7,68,12
India,Odisha,Rourkela,"Sector-2, Rourkela - OSPCB","27-01-2026 09:00:00",22.24500000,84.88111111,PM2.5,40,64,48
India,Odisha,Rourkela,"Sector-2, Rourkela - OSPCB","27-01-2026 09:00:00",22.24500000,84.88111111,CO,34,54,35
India,Odisha,Suakati,"OMC Colony, Suakati - OSPCB","27-01-2026 09:00:00",21.606865,85.510538,PM10,138,431,168
India,Rajasthan,Dausa,"Khatikan Mohalla, Dausa - RSPCB","27-01-2026 09:00:00",26.895552,76.334753,PM10,53,103,69
India,Rajasthan,Dausa,"Khatikan Mohalla, Dausa - RSPCB","27-01-2026 09:00:00",26.895552,76.334753,SO2,1,7,4
India,Rajasthan,Dholpur,"Raja Ganj, Dholpur - RSPCB","27-01-2026 09:00:00",26.699557,77.898881,PM10,81,161,104
India,Rajasthan,Dholpur,"Raja Ganj, Dholpur - RSPCB","27-01-2026 09:00:00",26.699557,77.898881,NO2,42,68,52
India,Rajasthan,Dungarpur,"Bhoiwada, Dungarpur - RSPCB","27-01-2026 09:00:00",23.837789,73.714926,PM10,127,265,162
India,Rajasthan,Dungarpur,"Bhoiwada, Dungarpur - RSPCB","27-01-2026 09:00:00",23.837789,73.714926,SO2,3,19,9
India,Rajasthan,Hanumangarh,"Housing Board, Hanumangarh - RSPCB","27-01-2026 09:00:00",29.610750,74.283608,SO2,7,29,13
India,Rajasthan,Jaipur,"Adarsh Nagar, Jaipur - RSPCB","27-01-2026 09:00:00",26.902909,75.836858,PM2.5,65,178,123
India,Rajasthan,Jaipur,"Adarsh Nagar, Jaipur - RSPCB","27-01-2026 09:00:00",26.902909,75.836858,OZONE,68,109,85
India,Rajasthan,Banswara,"Rati Talai, Banswara - RSPCB","27-01-2026 09:00:00",23.555190,74.440010,OZONE,1,144,60
India,Rajasthan,Baran,"Bamboliya, Baran - RSPCB","27-01-2026 09:00:00",25.106006,76.469948,NO2,17,32,22
India,Rajasthan,Baran,"Bamboliya, Baran - RSPCB","27-01-2026 09:00:00",25.106006,76.469948,SO2,7,13,11
India,Rajasthan,Barmer,"Railway Colony, Barmer - RSPCB","27-01-2026 09:00:00",25.747299,71.393989,PM2.5,43,210,92
India,Rajasthan,Barmer,"Railway Colony, Barmer - RSPCB","27-01-2026 09:00:00",25.747299,71.393989,OZONE,8,124,70
India,Rajasthan,Bharatpur,"Krishna Nagar, Bharatpur - RSPCB","27-01-2026 09:00:00",27.215415,77.50873,OZONE,22,141,34
India,Rajasthan,Bhilwara,"Pratap Nagar, Bhilwara - RSPCB","27-01-2026 09:00:00",25.339605,74.618883,NH3,4,6,5
India,Rajasthan,Bhilwara,"Pratap Nagar, Bhilwara - RSPCB","27-01-2026 09:00:00",25.339605,74.618883,OZONE,8,62,19
India,Rajasthan,Karauli,"Satyawati Vihar, Karauli - RSPCB","27-01-2026 09:00:00",26.506177,77.025989,PM2.5,42,89,66
India,Rajasthan,Karauli,"Satyawati Vihar, Karauli - RSPCB","27-01-2026 09:00:00",26.506177,77.025989,PM10,68,128,100
India,Rajasthan,Kota,"Dhanmandi, Kota - RSPCB","27-01-2026 09:00:00",25.164090,75.858137,CO,4,41,6
India,Rajasthan,Kota,"Nayapura, Kota - RSPCB","27-01-2026 09:00:00",25.196024,75.855668,SO2,3,17,6
India,Rajasthan,Kota,"Shrinath Puram, Kota - RSPCB","27-01-2026 09:00:00",25.14389,75.821256,PM10,77,141,113
India,Rajasthan,Kota,"Shrinath Puram, Kota - RSPCB","27-01-2026 09:00:00",25.14389,75.821256,SO2,1,31,11
India,Rajasthan,Nagaur,"Karni Colony, Nagaur - RSPCB","27-01-2026 09:00:00",27.213494,73.734444,PM2.5,53,315,90
India,Rajasthan,Nagaur,"Karni Colony, Nagaur - RSPCB","27-01-2026 09:00:00",27.213494,73.734444,PM10,101,410,144
India,Rajasthan,Jaipur,"Mansarovar Sector-12, Jaipur - RSPCB","27-01-2026 09:00:00",26.843698,75.766894,OZONE,93,244,156
India,Rajasthan,Jaipur,"Police Commissionerate, Jaipur - RSPCB","27-01-2026 09:00:00",26.9164092,75.7994901,OZONE,32,65,41
India,Rajasthan,Jaipur,"RIICO Sitapura, Jaipur - RSPCB","27-01-2026 09:00:00",26.786682,75.827928,SO2,6,11,9
India,Rajasthan,Jaipur,"RIICO Sitapura, Jaipur - RSPCB","27-01-2026 09:00:00",26.786682,75.827928,OZONE,69,132,96
India,Rajasthan,Jaipur,"Sector-2 Murlipura, Jaipur - RSPCB","27-01-2026 09:00:00",26.960669,75.771817,SO2,6,7,7
India,Rajasthan,Jaisalmer,"Sadar Bazar, Jaisalmer - RSPCB","27-01-2026 09:00:00",26.912329,70.909168,PM10,61,121,87
India,Punjab,Khanna,"Kalal Majra, Khanna - PPCB","27-01-2026 09:00:00","30.736056 ",76.209694,PM2.5,45,87,64
India,Punjab,Khanna,"Kalal Majra, Khanna - PPCB","27-01-2026 09:00:00","30.736056 ",76.209694,CO,66,90,74
India,Punjab,Rupnagar,"Ratanpura, Rupnagar - Ambuja Cements","27-01-2026 09:00:00",31.0325454,76.5623046,PM10,7,102,47
India,Rajasthan,Alwar,"Moti Doongri, Alwar - RSPCB","27-01-2026 09:00:00",27.554793,76.611536,PM2.5,82,185,104
India,Rajasthan,Alwar,"Moti Doongri, Alwar - RSPCB","27-01-2026 09:00:00",27.554793,76.611536,PM10,113,156,134
India,Rajasthan,Alwar,"Moti Doongri, Alwar - RSPCB","27-01-2026 09:00:00",27.554793,76.611536,NH3,6,13,10
India,Rajasthan,Jhalawar,"Rajlaxmi Nagar, Jhalawar - RSPCB","27-01-2026 09:00:00",24.588397,76.172782,NH3,4,7,5
India,Rajasthan,Jhalawar,"Rajlaxmi Nagar, Jhalawar - RSPCB","27-01-2026 09:00:00",24.588397,76.172782,OZONE,4,65,26
India,Rajasthan,Jhunjhunu,"Indra Nagar, Jhunjhunu - RSPCB","27-01-2026 09:00:00",28.108988,75.386577,PM10,89,256,157
India,Rajasthan,Jhunjhunu,"Indra Nagar, Jhunjhunu - RSPCB","27-01-2026 09:00:00",28.108988,75.386577,CO,25,102,52
India,Rajasthan,Jhunjhunu,"Indra Nagar, Jhunjhunu - RSPCB","27-01-2026 09:00:00",28.108988,75.386577,OZONE,18,119,27
India,Rajasthan,Jodhpur,"Jhalamand, Jodhpur - RSPCB","27-01-2026 09:00:00",26.215415,73.070156,OZONE,8,91,20
India,Uttar_Pradesh,Firozabad,"Nagla Bhau, Firozabad - UPPCB","27-01-2026 09:00:00",27.168897,78.376960,SO2,7,48,16
India,Uttar_Pradesh,Firozabad,"Nagla Bhau, Firozabad - UPPCB","27-01-2026 09:00:00",27.168897,78.376960,OZONE,13,15,15
India,Uttar_Pradesh,Firozabad,"Vibhab Nagar, Firozabad - UPPCB","27-01-2026 09:00:00",27.1594,78.3953,PM2.5,38,136,67
India,Uttar_Pradesh,Firozabad,"Vibhab Nagar, Firozabad - UPPCB","27-01-2026 09:00:00",27.1594,78.3953,NO2,15,15,15
India,Uttar_Pradesh,Ghaziabad,"Indirapuram, Ghaziabad - UPPCB","27-01-2026 09:00:00",28.646233,77.358075,CO,36,168,74
India,Uttar_Pradesh,Ghaziabad,"Loni, Ghaziabad - UPPCB","27-01-2026 09:00:00",28.757294,77.278792,PM2.5,249,500,385
India,Uttar_Pradesh,Ghaziabad,"Loni, Ghaziabad - UPPCB","27-01-2026 09:00:00",28.757294,77.278792,NH3,1,9,3
India,Uttar_Pradesh,Ghaziabad,"Loni, Ghaziabad - UPPCB","27-01-2026 09:00:00",28.757294,77.278792,OZONE,3,97,4
India,Uttar_Pradesh,Ghaziabad,"Sanjay Nagar, Ghaziabad - UPPCB","27-01-2026 09:00:00",28.685382,77.453839,PM10,136,411,255
India,Uttar_Pradesh,Ghaziabad,"Sanjay Nagar, Ghaziabad - UPPCB","27-01-2026 09:00:00",28.685382,77.453839,NH3,1,60,17
India,Uttar_Pradesh,Ghaziabad,"Sanjay Nagar, Ghaziabad - UPPCB","27-01-2026 09:00:00",28.685382,77.453839,SO2,4,24,15
India,Uttar_Pradesh,Ghaziabad,"Vasundhara, Ghaziabad - UPPCB","27-01-2026 09:00:00",28.6603346,77.3572563,NO2,27,128,72
India,Uttar_Pradesh,Ghaziabad,"Vasundhara, Ghaziabad - UPPCB","27-01-2026 09:00:00",28.6603346,77.3572563,SO2,19,46,29
India,Uttar_Pradesh,Gorakhpur,"Madan Mohan Malaviya University of Technology, Gorakhpur - UPPCB","27-01-2026 09:00:00",26.730136,83.433859,NO2,11,12,11
India,Uttar_Pradesh,Agra,"Shahjahan Garden, Agra - UPPCB","27-01-2026 09:00:00",27.169338,78.03582,OZONE,NA,NA,NA
India,Uttar_Pradesh,Agra,"Shastripuram, Agra - UPPCB","27-01-2026 09:00:00",27.19862,77.92066,PM10,6,173,99
India,Uttar_Pradesh,Agra,"Shastripuram, Agra - UPPCB","27-01-2026 09:00:00",27.19862,77.92066,CO,16,46,27
India,Uttar_Pradesh,Agra,"Shastripuram, Agra - UPPCB","27-01-2026 09:00:00",27.19862,77.92066,OZONE,10,12,11
India,Uttar_Pradesh,Baghpat,"Sardar Patel Inter College, Baghpat - UPPCB","27-01-2026 09:00:00",28.964949,77.278761,SO2,7,33,16
India,Uttar_Pradesh,Bareilly,"Rajendra Nagar, Bareilly - UPPCB","27-01-2026 09:00:00",28.38910936,79.42963708,PM10,53,139,96
India,Uttar_Pradesh,Bareilly,"Rajendra Nagar, Bareilly - UPPCB","27-01-2026 09:00:00",28.38910936,79.42963708,NH3,1,1,1
India,Uttar_Pradesh,Bulandshahr,"Yamunapuram, Bulandshahr - UPPCB","27-01-2026 09:00:00",28.406963,77.849831,NO2,15,134,55
India,Uttar_Pradesh,Firozabad,"Nagla Bhau, Firozabad - UPPCB","27-01-2026 09:00:00",27.168897,78.376960,PM2.5,19,81,44
India,Telangana,Hyderabad,"Bollaram Industrial Area, Hyderabad - TSPCB","27-01-2026 09:00:00",17.540891,78.358528,PM2.5,73,168,102
India,Telangana,Hyderabad,"Bollaram Industrial Area, Hyderabad - TSPCB","27-01-2026 09:00:00",17.540891,78.358528,PM10,77,133,104
India,Telangana,Hyderabad,"Bollaram Industrial Area, Hyderabad - TSPCB","27-01-2026 09:00:00",17.540891,78.358528,NO2,21,73,40
India,Telangana,Hyderabad,"Central University, Hyderabad - TSPCB","27-01-2026 09:00:00",17.460103,78.334361,SO2,5,11,8
India,Telangana,Hyderabad,"ECIL Kapra, Hyderabad - TSPCB","27-01-2026 09:00:00",17.470431,78.566959,PM2.5,15,43,40
India,Telangana,Hyderabad,"ICRISAT Patancheru, Hyderabad - TSPCB","27-01-2026 09:00:00",17.518400,78.278777,PM2.5,48,83,66
India,Telangana,Hyderabad,"ICRISAT Patancheru, Hyderabad - TSPCB","27-01-2026 09:00:00",17.518400,78.278777,SO2,5,10,7
India,Telangana,Hyderabad,"IDA Pashamylaram, Hyderabad - TSPCB","27-01-2026 09:00:00",17.5316895,78.218939,PM2.5,38,76,55
India,Telangana,Hyderabad,"IDA Pashamylaram, Hyderabad - TSPCB","27-01-2026 09:00:00",17.5316895,78.218939,PM10,38,78,57
India,Telangana,Hyderabad,"IITH Kandi, Hyderabad - TSPCB","27-01-2026 09:00:00",17.585705,78.126199,NO2,15,23,22
India,TamilNadu,Coimbatore,"SIDCO Kurichi, Coimbatore - TNPCB","27-01-2026 09:00:00",10.942451,76.978996,PM2.5,16,48,29
India,TamilNadu,Coimbatore,"SIDCO Kurichi, Coimbatore - TNPCB","27-01-2026 09:00:00",10.942451,76.978996,NH3,3,3,3
India,TamilNadu,Madurai,"Uchapatti, Madurai - TNPCB","27-01-2026 09:00:00",9.865935,78.022669,SO2,41,43,41
India,TamilNadu,Madurai,"Uchapatti, Madurai - TNPCB","27-01-2026 09:00:00",9.865935,78.022669,CO,23,26,24
India,TamilNadu,Perundurai,"SIPCOT Industrial Park, Perundurai - TNPCB","27-01-2026 09:00:00",11.258242,77.552761,PM10,19,84,40
India,TamilNadu,Perundurai,"SIPCOT Industrial Park, Perundurai - TNPCB","27-01-2026 09:00:00",11.258242,77.552761,NH3,1,2,2
India,TamilNadu,Pudukottai,"SIPCOT Nathampannai, Pudukottai - TNPCB","27-01-2026 09:00:00",10.423417,78.784889,PM10,40,78,61
India,TamilNadu,Pudukottai,"SIPCOT Nathampannai, Pudukottai - TNPCB","27-01-2026 09:00:00",10.423417,78.784889,NO2,3,8,5
India,TamilNadu,Pudukottai,"SIPCOT Nathampannai, Pudukottai - TNPCB","27-01-2026 09:00:00",10.423417,78.784889,SO2,1,2,1
India,TamilNadu,Thoothukudi,"Meelavittan, Thoothukudi - TNPCB","27-01-2026 09:00:00","8.816428 ",78.099039,PM10,27,114,41
India,TamilNadu,Chennai,"Arumbakkam, Chennai - TNPCB","27-01-2026 09:00:00",13.0664,"80.2112 ",NH3,1,2,2
India,TamilNadu,Chennai,"Arumbakkam, Chennai - TNPCB","27-01-2026 09:00:00",13.0664,"80.2112 ",SO2,2,3,2
India,TamilNadu,Chennai,"Kodungaiyur, Chennai - TNPCB","27-01-2026 09:00:00",13.1278,80.2642,CO,44,60,56
India,TamilNadu,Chennai,"Manali Village, Chennai - TNPCB","27-01-2026 09:00:00",13.1662,80.2584,NO2,4,6,4
India,TamilNadu,Chennai,"Perungudi, Chennai - TNPCB","27-01-2026 09:00:00",12.9533,80.2357,CO,25,52,35
India,TamilNadu,Chennai,"Royapuram, Chennai - TNPCB","27-01-2026 09:00:00",13.1036,80.2909,PM10,NA,NA,NA
India,TamilNadu,Chennai,"Velachery Res. Area, Chennai - CPCB","27-01-2026 09:00:00",13.0052189,80.2398125,OZONE,3,8,4
India,TamilNadu,Coimbatore,"PSG College of Arts and Science, Coimbatore - TNPCB","27-01-2026 09:00:00",11.0328,77.0349,SO2,2,18,4
India,Telangana,Hyderabad,"Somajiguda, Hyderabad - TSPCB","27-01-2026 09:00:00",17.417094,78.457437,NH3,3,4,3
India,Telangana,Hyderabad,"Somajiguda, Hyderabad - TSPCB","27-01-2026 09:00:00",17.417094,78.457437,OZONE,17,32,23
India,Telangana,Hyderabad,"Zoo Park, Hyderabad - TSPCB","27-01-2026 09:00:00",17.349694,78.451437,CO,3,77,35
India,Uttar_Pradesh,Agra,"Manoharpur, Agra - UPPCB","27-01-2026 09:00:00",27.23711,78.01936,NH3,3,4,4
India,Uttar_Pradesh,Agra,"Rohta, Agra - UPPCB","27-01-2026 09:00:00",27.106972,78.000111,NO2,13,13,13
India,Uttar_Pradesh,Agra,"Rohta, Agra - UPPCB","27-01-2026 09:00:00",27.106972,78.000111,NH3,5,5,5
India,Uttar_Pradesh,Agra,"Sanjay Palace, Agra - UPPCB","27-01-2026 09:00:00",27.19865833,78.00598056,PM10,86,256,154
India,Uttar_Pradesh,Agra,"Sanjay Palace, Agra - UPPCB","27-01-2026 09:00:00",27.19865833,78.00598056,CO,33,87,49
India,Uttar_Pradesh,Agra,"Sanjay Palace, Agra - UPPCB","27-01-2026 09:00:00",27.19865833,78.00598056,OZONE,3,101,19
India,Telangana,Hyderabad,"IITH Kandi, Hyderabad - TSPCB","27-01-2026 09:00:00",17.585705,78.126199,SO2,14,16,15
India,Telangana,Hyderabad,"Kokapet, Hyderabad - TSPCB","27-01-2026 09:00:00",17.393559,78.339194,PM10,79,100,90
India,Telangana,Hyderabad,"Kokapet, Hyderabad - TSPCB","27-01-2026 09:00:00",17.393559,78.339194,CO,18,35,20
India,Telangana,Hyderabad,"Kompally Municipal Office, Hyderabad - TSPCB","27-01-2026 09:00:00",17.544899,78.486949,NO2,12,15,15
India,Telangana,Hyderabad,"Nacharam_TSIIC IALA, Hyderabad - TSPCB","27-01-2026 09:00:00",17.429398,78.569354,SO2,15,16,16
India,Telangana,Hyderabad,"New Malakpet, Hyderabad - TSPCB","27-01-2026 09:00:00",17.37206,78.50864,NH3,2,3,3
India,Telangana,Hyderabad,"Ramachandrapuram, Hyderabad - TSPCB","27-01-2026 09:00:00",17.528544,78.286195,SO2,12,13,12
India,Telangana,Hyderabad,"Ramachandrapuram, Hyderabad - TSPCB","27-01-2026 09:00:00",17.528544,78.286195,CO,19,28,21
India,Rajasthan,Nagaur,"Karni Colony, Nagaur - RSPCB","27-01-2026 09:00:00",27.213494,73.734444,NO2,15,90,25
India,Rajasthan,Nagaur,"Karni Colony, Nagaur - RSPCB","27-01-2026 09:00:00",27.213494,73.734444,CO,14,90,34
India,Rajasthan,Pali,"Indira Colony Vistar, Pali - RSPCB","27-01-2026 09:00:00",25.771061," 73.340227",PM2.5,99,249,159
India,Rajasthan,Pali,"Indira Colony Vistar, Pali - RSPCB","27-01-2026 09:00:00",25.771061," 73.340227",SO2,6,12,8
India,Rajasthan,Pratapgarh,"Pragati Nagar, Pratapgarh - RSPCB","27-01-2026 09:00:00",24.041198,74.780702,NO2,15,62,24
India,Rajasthan,Rajsamand,"Dhoinda, Rajsamand - RSPCB","27-01-2026 09:00:00",25.036360,73.883502,NO2,11,42,20
India,Rajasthan,Rajsamand,"Dhoinda, Rajsamand - RSPCB","27-01-2026 09:00:00",25.036360,73.883502,SO2,10,27,15
India,Rajasthan,"Sawai Madhopur","Sahu Nagar, Sawai Madhopur - RSPCB","27-01-2026 09:00:00",26.031443,76.359327,SO2,2,4,2
India,Rajasthan,Sirohi,"Vedhaynath Colony, Sirohi - RSPCB","27-01-2026 09:00:00",24.885261,72.857549,PM2.5,67,240,104
India,Rajasthan,Sirohi,"Vedhaynath Colony, Sirohi - RSPCB","27-01-2026 09:00:00",24.885261,72.857549,OZONE,4,105,22
India,Rajasthan,"Sri Ganganagar","Old City, Sri Ganganagar - RSPCB","27-01-2026 09:00:00",29.931624,73.864511,PM2.5,53,306,96
India,Rajasthan,"Sri Ganganagar","Old City, Sri Ganganagar - RSPCB","27-01-2026 09:00:00",29.931624,73.864511,SO2,4,7,5
India,Rajasthan,Udaipur,"Ashok Nagar, Udaipur - RSPCB","27-01-2026 09:00:00",24.5886166,73.6321397,SO2,1,17,8
India,Sikkim,Gangtok,"Zero Point GICI, Gangtok - SSPCB","27-01-2026 09:00:00",27.338530,88.614099,NH3,1,1,1
India,Sikkim,Gangtok,"Zero Point GICI, Gangtok - SSPCB","27-01-2026 09:00:00",27.338530,88.614099,SO2,1,1,1
India,Uttar_Pradesh,Moradabad,"Buddhi Vihar, Moradabad - UPPCB","27-01-2026 09:00:00",28.83526,78.74460,SO2,NA,NA,NA
India,Uttar_Pradesh,Moradabad,"Eco Herbal Park, Moradabad - UPPCB","27-01-2026 09:00:00",28.840739,78.697531,PM10,86,161,129
India,Uttar_Pradesh,Moradabad,"Eco Herbal Park, Moradabad - UPPCB","27-01-2026 09:00:00",28.840739,78.697531,OZONE,3,72,3
India,Uttar_Pradesh,Moradabad,"Jigar Colony, Moradabad - UPPCB","27-01-2026 09:00:00",28.856664,78.772638,PM10,76,143,110
India,Uttar_Pradesh,Moradabad,"Jigar Colony, Moradabad - UPPCB","27-01-2026 09:00:00",28.856664,78.772638,SO2,18,39,31
India,Uttar_Pradesh,Moradabad,"Kashiram Nagar, Moradabad - UPPCB","27-01-2026 09:00:00",28.849399,78.742362,NO2,25,25,25
India,Uttar_Pradesh,Moradabad,"Kashiram Nagar, Moradabad - UPPCB","27-01-2026 09:00:00",28.849399,78.742362,NH3,4,4,4
India,Uttar_Pradesh,Moradabad,"Transport Nagar, Moradabad - UPPCB","27-01-2026 09:00:00",28.802625,78.753728,PM10,42,137,90
India,Uttar_Pradesh,Muzaffarnagar,"New Mandi, Muzaffarnagar - UPPCB","27-01-2026 09:00:00",29.4723508,77.7194031,PM10,71,195,143
India,Uttar_Pradesh,Muzaffarnagar,"New Mandi, Muzaffarnagar - UPPCB","27-01-2026 09:00:00",29.4723508,77.7194031,OZONE,8,125,17
India,Uttar_Pradesh,Noida,"Sector - 125, Noida - UPPCB","27-01-2026 09:00:00",28.5447608,77.3231257,PM10,93,367,204
India,Uttar_Pradesh,Prayagraj,"Nagar Nigam, Prayagraj - UPPCB","27-01-2026 09:00:00","25.44919916 ","81.82735986 ",NH3,9,20,13
India,Uttar_Pradesh,Varanasi,"Ardhali Bazar, Varanasi - UPPCB","27-01-2026 09:00:00",25.3505986,82.9083074,CO,12,15,14
India,Uttar_Pradesh,Varanasi,"Bhelupur, Varanasi - UPPCB","27-01-2026 09:00:00",25.301778,82.996789,NH3,1,1,1
India,Uttar_Pradesh,Varanasi,"IESD Banaras Hindu University, Varanasi - UPPCB","27-01-2026 09:00:00",25.262326,82.995408,PM2.5,27,149,75
India,Uttar_Pradesh,Varanasi,"IESD Banaras Hindu University, Varanasi - UPPCB","27-01-2026 09:00:00",25.262326,82.995408,NO2,2,2,2
India,Uttar_Pradesh,Varanasi,"Maldahiya, Varanasi - UPPCB","27-01-2026 09:00:00",25.32393,82.99687,NO2,2,2,2
India,Uttar_Pradesh,Varanasi,"Maldahiya, Varanasi - UPPCB","27-01-2026 09:00:00",25.32393,82.99687,CO,2,70,42
India,Uttar_Pradesh,Varanasi,"Maldahiya, Varanasi - UPPCB","27-01-2026 09:00:00",25.32393,82.99687,OZONE,1,7,1
India,Uttar_Pradesh,Vrindavan,"Omex Eternity, Vrindavan - UPPCB","27-01-2026 09:00:00",27.5714090,77.6557570,CO,26,50,44
India,Uttarakhand,Dehradun,"Doon University, Dehradun - UKPCB","27-01-2026 09:00:00",30.269444,78.044167,PM10,27,120,79
India,Uttar_Pradesh,Lucknow,"Lalbagh, Lucknow - CPCB","27-01-2026 09:00:00",26.8458805,80.9365541,CO,34,82,57
India,Uttar_Pradesh,Lucknow,"Talkatora District Industries Center, Lucknow - CPCB","27-01-2026 09:00:00",26.83399722,80.8917361,PM2.5,86,303,166
India,Uttar_Pradesh,Lucknow,"Talkatora District Industries Center, Lucknow - CPCB","27-01-2026 09:00:00",26.83399722,80.8917361,SO2,3,100,20
India,Uttar_Pradesh,Meerut,"Jai Bhim Nagar, Meerut - UPPCB","27-01-2026 09:00:00",28.9535882,77.7622941,NO2,11,76,34
India,Uttar_Pradesh,Meerut,"Jai Bhim Nagar, Meerut - UPPCB","27-01-2026 09:00:00",28.9535882,77.7622941,NH3,18,35,26
India,Uttar_Pradesh,Meerut,"Pallavpuram Phase 2, Meerut - UPPCB","27-01-2026 09:00:00",29.063510,77.709723,PM2.5,80,353,261
India,Uttar_Pradesh,Meerut,"Pallavpuram Phase 2, Meerut - UPPCB","27-01-2026 09:00:00",29.063510,77.709723,PM10,96,363,184
India,Uttar_Pradesh,Meerut,"Pallavpuram Phase 2, Meerut - UPPCB","27-01-2026 09:00:00",29.063510,77.709723,SO2,6,20,13
India,Uttar_Pradesh,Moradabad,"Buddhi Vihar, Moradabad - UPPCB","27-01-2026 09:00:00",28.83526,78.74460,PM10,NA,NA,NA
India,Uttar_Pradesh,"Greater Noida","Knowledge Park - III, Greater Noida - UPPCB","27-01-2026 09:00:00",28.47272,77.482000,PM2.5,75,360,232
India,Uttar_Pradesh,"Greater Noida","Knowledge Park - III, Greater Noida - UPPCB","27-01-2026 09:00:00",28.47272,77.482000,SO2,3,10,6
India,Uttar_Pradesh,"Greater Noida","Knowledge Park - V, Greater Noida - UPPCB","27-01-2026 09:00:00",28.557054,77.453663,PM2.5,51,422,306
India,Uttar_Pradesh,"Greater Noida","Knowledge Park - V, Greater Noida - UPPCB","27-01-2026 09:00:00",28.557054,77.453663,NO2,56,160,102
India,Uttar_Pradesh,"Greater Noida","Knowledge Park - V, Greater Noida - UPPCB","27-01-2026 09:00:00",28.557054,77.453663,SO2,10,28,15
India,Uttar_Pradesh,Jhansi,"Shivaji Nagar, Jhansi - UPPCB","27-01-2026 09:00:00",25.4547,78.6039,CO,10,19,14
India,Uttar_Pradesh,Kanpur,"FTI Kidwai Nagar, Kanpur - UPPCB","27-01-2026 09:00:00",26.428282,80.327067,PM2.5,28,117,62
India,Uttar_Pradesh,Kanpur,"FTI Kidwai Nagar, Kanpur - UPPCB","27-01-2026 09:00:00",26.428282,80.327067,CO,34,47,42
India,Uttar_Pradesh,Kanpur,"NSI Kalyanpur, Kanpur - UPPCB","27-01-2026 09:00:00",26.509954,80.249612,NH3,5,5,5
India,West_Bengal,Durgapur,"Mahishkapur Road_B-Zone, Durgapur - WBPCB","27-01-2026 09:00:00",23.567923,87.306843,NH3,3,3,3
India,West_Bengal,Durgapur,"Mahishkapur Road_B-Zone, Durgapur - WBPCB","27-01-2026 09:00:00",23.567923,87.306843,CO,16,75,36
India,West_Bengal,Durgapur,"PCBL Residential Complex, Durgapur - WBPCB","27-01-2026 09:00:00",23.5087640,87.3544400,CO,42,83,61
India,West_Bengal,Durgapur,"Womens College_City Center, Durgapur - WBPCB","27-01-2026 09:00:00",23.549395,87.300496,SO2,27,28,28
India,West_Bengal,Durgapur,"Womens College_City Center, Durgapur - WBPCB","27-01-2026 09:00:00",23.549395,87.300496,OZONE,2,56,2
India,West_Bengal,Haldia,"Priyambada Housing Estate, Haldia - WBPCB","27-01-2026 09:00:00",22.06047,88.109737,PM2.5,81,221,162
India,West_Bengal,Haldia,"Priyambada Housing Estate, Haldia - WBPCB","27-01-2026 09:00:00",22.06047,88.109737,NH3,6,6,6
India,West_Bengal,Howrah,"Belur Math, Howrah - WBPCB","27-01-2026 09:00:00",22.629801,88.352017,OZONE,23,52,25
India,Uttar_Pradesh,Noida,"Sector - 125, Noida - UPPCB","27-01-2026 09:00:00",28.5447608,77.3231257,NH3,2,4,3
India,Uttar_Pradesh,Noida,"Sector - 62, Noida - IMD","27-01-2026 09:00:00",28.6245479,77.3577104,PM10,99,393,207
India,Uttar_Pradesh,Noida,"Sector - 62, Noida - IMD","27-01-2026 09:00:00",28.6245479,77.3577104,NO2,10,31,17
India,Uttar_Pradesh,Noida,"Sector - 62, Noida - IMD","27-01-2026 09:00:00",28.6245479,77.3577104,CO,30,111,97
India,Uttar_Pradesh,Noida,"Sector-1, Noida - UPPCB","27-01-2026 09:00:00",28.5898,77.3101,NH3,10,16,12
India,Uttar_Pradesh,Noida,"Sector-116, Noida - UPPCB","27-01-2026 09:00:00",28.569230,77.393848,CO,9,134,44
India,Uttar_Pradesh,Prayagraj,"Jhunsi, Prayagraj - UPPCB","27-01-2026 09:00:00",25.425602,81.917152,PM2.5,34,235,118
India,Uttarakhand,Rishikesh,"Shivaji Nagar, Rishikesh - UKPCB","27-01-2026 09:00:00",30.075911,78.2859547,PM10,56,78,67
India,West_Bengal,Asansol,"Asansol Court Area, Asansol - WBPCB","27-01-2026 09:00:00",23.685297,86.945968,NO2,15,28,23
India,West_Bengal,Asansol,"Evelyn Lodge, Asansol - WBPCB","27-01-2026 09:00:00",23.6979360,86.9443950,SO2,6,10,8
India,West_Bengal,Asansol,"Mahabir Colliery, Asansol - WBPCB","27-01-2026 09:00:00",23.6181830,87.1057180,SO2,4,9,6
India,West_Bengal,Asansol,"Trivenidevi Bhalotia College, Asansol - WBPCB","27-01-2026 09:00:00",23.616515,87.119133,PM2.5,56,292,141
India,Uttar_Pradesh,Lucknow,"B R Ambedkar University, Lucknow - UPPCB","27-01-2026 09:00:00",26.766433,80.927299,NH3,4,4,4
India,Uttar_Pradesh,Lucknow,"Kendriya Vidyalaya, Lucknow - CPCB","27-01-2026 09:00:00",26.906111,80.948222,SO2,2,11,5
India,Uttar_Pradesh,Lucknow,"Kendriya Vidyalaya, Lucknow - CPCB","27-01-2026 09:00:00",26.906111,80.948222,CO,20,108,45
India,Uttar_Pradesh,Lucknow,"Kendriya Vidyalaya, Lucknow - CPCB","27-01-2026 09:00:00",26.906111,80.948222,OZONE,10,78,16
India,Uttar_Pradesh,Lucknow,"Kukrail Picnic Spot-1, Lucknow - UPPCB","27-01-2026 09:00:00",26.90723,80.98579,NH3,6,6,6
India,Uttar_Pradesh,Lucknow,"Kukrail Picnic Spot-1, Lucknow - UPPCB","27-01-2026 09:00:00",26.90723,80.98579,OZONE,7,26,7
India,Uttar_Pradesh,Kanpur,"Nehru Nagar, Kanpur - UPPCB","27-01-2026 09:00:00",26.4703136,80.3229863,CO,NA,NA,NA
India,Uttar_Pradesh,Khurja,"Kalindi Kunj, Khurja - UPPCB","27-01-2026 09:00:00",28.2348927,77.8683002,NO2,8,10,9
India,West_Bengal,Howrah,"Botanical Garden, Howrah - WBPCB","27-01-2026 09:00:00",22.554954,88.292568,NO2,9,24,17
India,West_Bengal,Howrah,"Botanical Garden, Howrah - WBPCB","27-01-2026 09:00:00",22.554954,88.292568,CO,40,114,92
India,West_Bengal,Howrah,"Dasnagar, Howrah - WBPCB","27-01-2026 09:00:00",22.6025571,88.3105664,NH3,7,19,11
India,West_Bengal,Howrah,"Dasnagar, Howrah - WBPCB","27-01-2026 09:00:00",22.6025571,88.3105664,OZONE,14,126,17
India,West_Bengal,Howrah,"Ghusuri, Howrah - WBPCB","27-01-2026 09:00:00",22.611968,88.347422,PM2.5,97,363,231
India,West_Bengal,Howrah,"Ghusuri, Howrah - WBPCB","27-01-2026 09:00:00",22.611968,88.347422,NO2,14,34,24
India,West_Bengal,Howrah,"Ghusuri, Howrah - WBPCB","27-01-2026 09:00:00",22.611968,88.347422,SO2,9,25,17
India,West_Bengal,Howrah,"Ghusuri, Howrah - WBPCB","27-01-2026 09:00:00",22.611968,88.347422,OZONE,9,41,11
India,West_Bengal,Howrah,"Padmapukur, Howrah - WBPCB","27-01-2026 09:00:00",22.5687319,88.2797276,OZONE,1,49,2
India,West_Bengal,Kolkata,"Bidhannagar, Kolkata - WBPCB","27-01-2026 09:00:00",22.58157048,88.41002457,OZONE,13,75,20
India,West_Bengal,Kolkata,"Fort William, Kolkata - WBPCB","27-01-2026 09:00:00",22.556640,88.342674,PM2.5,79,196,131
India,West_Bengal,Kolkata,"Fort William, Kolkata - WBPCB","27-01-2026 09:00:00",22.556640,88.342674,PM10,83,137,112
India,West_Bengal,Kolkata,"Fort William, Kolkata - WBPCB","27-01-2026 09:00:00",22.556640,88.342674,SO2,5,25,10
India,West_Bengal,Kolkata,"Jadavpur, Kolkata - WBPCB","27-01-2026 09:00:00",22.49929,88.36917,PM2.5,89,324,207
India,West_Bengal,Kolkata,"Jadavpur, Kolkata - WBPCB","27-01-2026 09:00:00",22.49929,88.36917,PM10,94,235,154
India,West_Bengal,Kolkata,"Rabindra Sarobar, Kolkata - WBPCB","27-01-2026 09:00:00",22.51106,88.35142,PM2.5,57,114,89
India,West_Bengal,Kolkata,"Rabindra Sarobar, Kolkata - WBPCB","27-01-2026 09:00:00",22.51106,88.35142,SO2,5,35,12
India,West_Bengal,Kolkata,"Rabindra Sarobar, Kolkata - WBPCB","27-01-2026 09:00:00",22.51106,88.35142,OZONE,4,40,5
India,West_Bengal,Kolkata,"Victoria, Kolkata - WBPCB","27-01-2026 09:00:00",22.5448082,88.3403691,PM2.5,86,259,176
India,West_Bengal,Kolkata,"Victoria, Kolkata - WBPCB","27-01-2026 09:00:00",22.5448082,88.3403691,SO2,9,29,17
India,West_Bengal,Siliguri,"Ward-32 Bapupara, Siliguri - WBPCB","27-01-2026 09:00:00",26.6879226,88.4152495,CO,34,104,51
India,Andhra_Pradesh,Vijayawada,"Rajiv Nagar, Vijayawada - APPCB","27-01-2026 09:00:00",16.554731,80.649110,NO2,NA,NA,NA
India,Andhra_Pradesh,Vijayawada,"Rajiv Nagar, Vijayawada - APPCB","27-01-2026 09:00:00",16.554731,80.649110,CO,28,36,35
India,Andhra_Pradesh,Vijayawada,"Rajiv Nagar, Vijayawada - APPCB","27-01-2026 09:00:00",16.554731,80.649110,OZONE,NA,NA,NA
India,Andhra_Pradesh,Visakhapatnam,"GVM Corporation, Visakhapatnam - APPCB","27-01-2026 09:00:00",17.72,83.3,PM2.5,90,305,176
India,Andhra_Pradesh,Visakhapatnam,"GVM Corporation, Visakhapatnam - APPCB","27-01-2026 09:00:00",17.72,83.3,OZONE,4,85,6
India,Arunachal_Pradesh,Naharlagun,"Naharlagun, Naharlagun - APSPCB","27-01-2026 09:00:00",27.103358,93.679645,PM10,60,415,142
India,Arunachal_Pradesh,Naharlagun,"Naharlagun, Naharlagun - APSPCB","27-01-2026 09:00:00",27.103358,93.679645,NO2,6,7,7
India,Arunachal_Pradesh,Naharlagun,"Naharlagun, Naharlagun - APSPCB","27-01-2026 09:00:00",27.103358,93.679645,NH3,1,1,1
India,Assam,Byrnihat,"Central Academy for SFS, Byrnihat - PCBA","27-01-2026 09:00:00",26.071318,91.87488,PM10,69,110,88
India,Assam,Byrnihat,"Central Academy for SFS, Byrnihat - PCBA","27-01-2026 09:00:00",26.071318,91.87488,NO2,4,10,7
India,Assam,Byrnihat,"Central Academy for SFS, Byrnihat - PCBA","27-01-2026 09:00:00",26.071318,91.87488,CO,28,70,48
India,Assam,Guwahati,"LGBI Airport, Guwahati - PCBA","27-01-2026 09:00:00",26.10887,91.589544,NH3,5,6,5
India,Assam,Guwahati,"Pan Bazaar, Guwahati - PCBA","27-01-2026 09:00:00",26.187500,91.744194,SO2,22,48,33
India,Assam,Guwahati,"Pan Bazaar, Guwahati - PCBA","27-01-2026 09:00:00",26.187500,91.744194,OZONE,17,18,18
India,Assam,Guwahati,"Railway Colony, Guwahati - PCBA","27-01-2026 09:00:00",26.181742,91.78063,NO2,3,4,3
India,Bihar,Patna,"Samanpura, Patna - BSPCB","27-01-2026 09:00:00",25.596727,85.085624,SO2,2,4,4
India,Bihar,Purnia,"Mariam Nagar, Purnia - BSPCB","27-01-2026 09:00:00",25.366336,87.117468,PM2.5,78,127,99
India,Bihar,Purnia,"Mariam Nagar, Purnia - BSPCB","27-01-2026 09:00:00",25.366336,87.117468,NO2,5,7,6
India,Bihar,Purnia,"Mariam Nagar, Purnia - BSPCB","27-01-2026 09:00:00",25.366336,87.117468,SO2,16,22,17
India,Bihar,Rajgir,"Dangi Tola, Rajgir - BSPCB","27-01-2026 09:00:00",25.03280,85.41948,NH3,5,8,6
India,Bihar,Samastipur,"DM Office_Kasipur, Samastipur - BSPCB","27-01-2026 09:00:00",25.859655,85.77944,PM2.5,38,313,133
India,Bihar,Samastipur,"DM Office_Kasipur, Samastipur - BSPCB","27-01-2026 09:00:00",25.859655,85.77944,PM10,38,185,100
India,Bihar,Samastipur,"DM Office_Kasipur, Samastipur - BSPCB","27-01-2026 09:00:00",25.859655,85.77944,SO2,23,29,25
India,Bihar,Samastipur,"DM Office_Kasipur, Samastipur - BSPCB","27-01-2026 09:00:00",25.859655,85.77944,CO,8,12,10
India,Bihar,Samastipur,"DM Office_Kasipur, Samastipur - BSPCB","27-01-2026 09:00:00",25.859655,85.77944,OZONE,7,9,8
India,Bihar,Sasaram,"Dada Peer, Sasaram - BSPCB","27-01-2026 09:00:00",24.952822,84.002396,NO2,NA,NA,NA
India,Bihar,Sasaram,"Dada Peer, Sasaram - BSPCB","27-01-2026 09:00:00",24.952822,84.002396,SO2,NA,NA,NA
India,Bihar,Sasaram,"Dada Peer, Sasaram - BSPCB","27-01-2026 09:00:00",24.952822,84.002396,OZONE,NA,NA,NA
India,Bihar,Siwan,"Chitragupta Nagar, Siwan - BSPCB","27-01-2026 09:00:00",26.2271665,84.3570427,PM2.5,NA,NA,NA
India,Bihar,Siwan,"Chitragupta Nagar, Siwan - BSPCB","27-01-2026 09:00:00",26.2271665,84.3570427,PM10,59,151,91
India,Andhra_Pradesh,Rajamahendravaram,"Anand Kala Kshetram, Rajamahendravaram - APPCB","27-01-2026 09:00:00",16.9872867,81.7363176,PM2.5,75,168,106
India,Andhra_Pradesh,Rajamahendravaram,"Anand Kala Kshetram, Rajamahendravaram - APPCB","27-01-2026 09:00:00",16.9872867,81.7363176,NH3,4,6,5
India,Andhra_Pradesh,Tirumala,"Toll Gate, Tirumala - APPCB","27-01-2026 09:00:00",13.67,79.35,PM2.5,33,96,62
India,Andhra_Pradesh,Tirumala,"Toll Gate, Tirumala - APPCB","27-01-2026 09:00:00",13.67,79.35,SO2,3,12,7
India,Andhra_Pradesh,Tirumala,"Toll Gate, Tirumala - APPCB","27-01-2026 09:00:00",13.67,79.35,CO,1,80,25
India,Andhra_Pradesh,Tirumala,"Toll Gate, Tirumala - APPCB","27-01-2026 09:00:00",13.67,79.35,OZONE,17,46,37
India,Andhra_Pradesh,Vijayawada,"HB Colony, Vijayawada - APPCB","27-01-2026 09:00:00",16.536107,80.594233,NO2,18,19,18
India,Andhra_Pradesh,Vijayawada,"Kanuru, Vijayawada - APPCB","27-01-2026 09:00:00",16.486692,80.699436,PM10,45,50,48
India,Andhra_Pradesh,Vijayawada,"Kanuru, Vijayawada - APPCB","27-01-2026 09:00:00",16.486692,80.699436,CO,41,48,47
India,Andhra_Pradesh,Vijayawada,"Rajiv Gandhi Park, Vijayawada - APPCB","27-01-2026 09:00:00",16.509717,80.612222,PM2.5,65,112,89
India,Andhra_Pradesh,Vijayawada,"Rajiv Gandhi Park, Vijayawada - APPCB","27-01-2026 09:00:00",16.509717,80.612222,PM10,59,97,81
India,Andhra_Pradesh,Vijayawada,"Rajiv Gandhi Park, Vijayawada - APPCB","27-01-2026 09:00:00",16.509717,80.612222,SO2,17,19,18
India,Assam,Guwahati,"Railway Colony, Guwahati - PCBA","27-01-2026 09:00:00",26.181742,91.78063,SO2,35,38,37
India,Assam,Nagaon,"Christianpatty, Nagaon - PCBA","27-01-2026 09:00:00",26.349082,92.68449,PM10,NA,NA,NA
India,Assam,Nalbari,"Bata Chowk, Nalbari - PCBA","27-01-2026 09:00:00",26.446912,91.439057,NO2,8,15,14
India,Assam,Nalbari,"Bata Chowk, Nalbari - PCBA","27-01-2026 09:00:00",26.446912,91.439057,OZONE,1,16,16
India,Assam,Silchar,"Tarapur, Silchar - PCBA","27-01-2026 09:00:00",24.82827,92.79525,CO,32,52,39
India,Assam,Sivasagar,"Girls College, Sivasagar - PCBA","27-01-2026 09:00:00",26.987634,94.636574,NH3,5,25,10
India,Assam,Sivasagar,"Girls College, Sivasagar - PCBA","27-01-2026 09:00:00",26.987634,94.636574,SO2,13,15,14
India,Bihar,Araria,"Kharahiya Basti, Araria - BSPCB","27-01-2026 09:00:00",26.146529,87.454184,PM10,32,117,78
India,Bihar,Araria,"Kharahiya Basti, Araria - BSPCB","27-01-2026 09:00:00",26.146529,87.454184,NO2,1,19,5
India,Bihar,Arrah,"New DM Office, Arrah - BSPCB","27-01-2026 09:00:00",25.5626095,84.663264,PM2.5,18,58,36
India,Bihar,Buxar,"Charitra Van, Buxar - BSPCB","27-01-2026 09:00:00",25.567520,83.966379,PM2.5,63,100,86
India,Bihar,Buxar,"Charitra Van, Buxar - BSPCB","27-01-2026 09:00:00",25.567520,83.966379,PM10,62,101,86
India,Bihar,Buxar,"Charitra Van, Buxar - BSPCB","27-01-2026 09:00:00",25.567520,83.966379,NH3,3,3,3
India,Bihar,Buxar,"Charitra Van, Buxar - BSPCB","27-01-2026 09:00:00",25.567520,83.966379,SO2,1,42,16
India,Bihar,Chhapra,"Darshan Nagar, Chhapra - BSPCB","27-01-2026 09:00:00",25.7808257,84.7446768,CO,26,60,53
India,Bihar,Chhapra,"Darshan Nagar, Chhapra - BSPCB","27-01-2026 09:00:00",25.7808257,84.7446768,OZONE,15,20,18
India,Bihar,Gaya,"Kareemganj, Gaya - BSPCB","27-01-2026 09:00:00",24.792403,84.992416,NH3,4,6,5
India,Bihar,Gaya,"Kareemganj, Gaya - BSPCB","27-01-2026 09:00:00",24.792403,84.992416,SO2,13,16,15
India,Bihar,Gaya,"Kareemganj, Gaya - BSPCB","27-01-2026 09:00:00",24.792403,84.992416,OZONE,1,32,11
India,Bihar,Kishanganj,"SDM Office_Khagra, Kishanganj - BSPCB","27-01-2026 09:00:00",26.0881305,87.93840336,NO2,9,15,12
India,Bihar,Muzaffarpur,"Muzaffarpur Collectorate, Muzaffarpur - BSPCB","27-01-2026 09:00:00",26.1209,85.3647,CO,13,37,16
India,Bihar,Muzaffarpur,"Muzaffarpur Collectorate, Muzaffarpur - BSPCB","27-01-2026 09:00:00",26.1209,85.3647,OZONE,7,18,8
India,Bihar,Patna,"DRM Office Danapur, Patna - BSPCB","27-01-2026 09:00:00",25.586562,85.043586,PM2.5,66,177,110
India,Bihar,Patna,"DRM Office Danapur, Patna - BSPCB","27-01-2026 09:00:00",25.586562,85.043586,NH3,5,13,8
India,Bihar,Patna,"DRM Office Danapur, Patna - BSPCB","27-01-2026 09:00:00",25.586562,85.043586,OZONE,9,31,16
India,Bihar,Patna,"Govt. High School Shikarpur, Patna - BSPCB","27-01-2026 09:00:00",25.592539,85.227158,PM2.5,68,85,76
India,Bihar,Patna,"Govt. High School Shikarpur, Patna - BSPCB","27-01-2026 09:00:00",25.592539,85.227158,PM10,98,112,104
India,Bihar,Patna,"Govt. High School Shikarpur, Patna - BSPCB","27-01-2026 09:00:00",25.592539,85.227158,OZONE,9,13,11
India,Bihar,Patna,"Muradpur, Patna - BSPCB","27-01-2026 09:00:00",25.619651,85.147382,PM2.5,57,91,76
India,Bihar,Siwan,"Chitragupta Nagar, Siwan - BSPCB","27-01-2026 09:00:00",26.2271665,84.3570427,NH3,1,1,1
India,Chandigarh,Chandigarh,"Sector 22, Chandigarh - CPCC","27-01-2026 09:00:00",30.735567,76.775714,NH3,12,19,15
India,Chhattisgarh,Bhilai,"32Bungalows, Bhilai - CECB","27-01-2026 09:00:00",21.194815,81.314770,PM2.5,26,68,44
India,Chhattisgarh,Bhilai,"32Bungalows, Bhilai - CECB","27-01-2026 09:00:00",21.194815,81.314770,NH3,5,6,6
India,Chhattisgarh,Bhilai,"Civic Center, Bhilai - Bhilai Steel Plant","27-01-2026 09:00:00",21.185571,81.343175,SO2,6,10,8
India,Chhattisgarh,Bhilai,"Hathkhoj, Bhilai - CECB","27-01-2026 09:00:00",21.224231,81.408350,PM2.5,43,92,63
India,Chhattisgarh,Bhilai,"Hathkhoj, Bhilai - CECB","27-01-2026 09:00:00",21.224231,81.408350,PM10,27,123,58
India,Bihar,Kishanganj,"SDM Office_Khagra, Kishanganj - BSPCB","27-01-2026 09:00:00",26.0881305,87.93840336,CO,16,28,17
India,Bihar,Kishanganj,"SDM Office_Khagra, Kishanganj - BSPCB","27-01-2026 09:00:00",26.0881305,87.93840336,OZONE,16,17,16
India,Bihar,Manguraha,"Forest Rest House, Manguraha - BSPCB","27-01-2026 09:00:00",27.308328,84.531742,PM10,76,197,110
India,Bihar,Munger,"Town Hall, Munger - BSPCB","27-01-2026 09:00:00",25.376776,86.471523,NH3,5,7,6
India,Bihar,Aurangabad,"Gurdeo Nagar, Aurangabad - BSPCB","27-01-2026 09:00:00",24.75746,84.366208,PM10,NA,NA,NA
India,Bihar,Bettiah,"Kamalnath Nagar, Bettiah - BSPCB","27-01-2026 09:00:00",26.80365,84.51954,NO2,7,10,8
India,Bihar,Bettiah,"Kamalnath Nagar, Bettiah - BSPCB","27-01-2026 09:00:00",26.80365,84.51954,NH3,1,1,1
India,Bihar,Bhagalpur,"DM Office_Kachari Chowk, Bhagalpur - BSPCB","27-01-2026 09:00:00",25.251013,86.989001,PM2.5,33,90,66
India,Andhra_Pradesh,Chittoor,"Gangineni Cheruvu, Chittoor - APPCB","27-01-2026 09:00:00",13.204880,79.097889,NH3,6,7,7
India,Andhra_Pradesh,Chittoor,"Gangineni Cheruvu, Chittoor - APPCB","27-01-2026 09:00:00",13.204880,79.097889,SO2,14,39,22
India,Andhra_Pradesh,Chittoor,"Gangineni Cheruvu, Chittoor - APPCB","27-01-2026 09:00:00",13.204880,79.097889,OZONE,46,53,50
India,Andhra_Pradesh,Kadapa,"Yerramukkapalli, Kadapa - APPCB","27-01-2026 09:00:00",14.465052,78.824187,PM2.5,55,87,70
India,Chhattisgarh,Chhal,"Nawapara SECL Colony, Chhal - CECB","27-01-2026 09:00:00",22.118125,83.140608,NO2,8,29,15
India,Chhattisgarh,Chhal,"Nawapara SECL Colony, Chhal - CECB","27-01-2026 09:00:00",22.118125,83.140608,NH3,5,5,5
India,Chhattisgarh,Chhal,"Nawapara SECL Colony, Chhal - CECB","27-01-2026 09:00:00",22.118125,83.140608,SO2,2,92,23
India,Chhattisgarh,Korba,"Rampur, Korba - CECB","27-01-2026 09:00:00",22.368195,82.746431,OZONE,NA,NA,NA
India,Chhattisgarh,Korba,"Urja Nagar, Korba - CECB","27-01-2026 09:00:00",22.348441,82.549611,PM2.5,NA,NA,NA
India,Chhattisgarh,Korba,"Urja Nagar, Korba - CECB","27-01-2026 09:00:00",22.348441,82.549611,OZONE,12,26,26
India,Chhattisgarh,Kunjemura,"OP Jindal School, Kunjemura - CECB","27-01-2026 09:00:00",22.126650,83.483212,PM2.5,88,114,99
India,Chhattisgarh,Kunjemura,"OP Jindal School, Kunjemura - CECB","27-01-2026 09:00:00",22.126650,83.483212,PM10,104,284,153
India,Chhattisgarh,Kunjemura,"OP Jindal School, Kunjemura - CECB","27-01-2026 09:00:00",22.126650,83.483212,NO2,20,78,45
India,Chhattisgarh,Kunjemura,"OP Jindal School, Kunjemura - CECB","27-01-2026 09:00:00",22.126650,83.483212,SO2,3,83,23
India,Chhattisgarh,Milupara,"Govt. Higher Secondary School, Milupara - CECB","27-01-2026 09:00:00",22.1910172,83.5197009,CO,20,48,34
India,Chhattisgarh,Raipur,"AIIMS, Raipur - CECB","27-01-2026 09:00:00",21.258815,81.578979,NH3,4,4,4
India,Chhattisgarh,Raipur,"Krishak Nagar, Raipur - CECB","27-01-2026 09:00:00",21.237755,81.705301,PM2.5,51,105,80
India,Chhattisgarh,Raipur,"Krishak Nagar, Raipur - CECB","27-01-2026 09:00:00",21.237755,81.705301,OZONE,11,22,11
India,Chhattisgarh,Raipur,"Siltara Phase-II, Raipur - CECB","27-01-2026 09:00:00",21.371751,81.664929,CO,34,36,35
India,Delhi,Delhi,"Alipur, Delhi - DPCC","27-01-2026 09:00:00",28.815329,77.153010,PM2.5,180,374,295
India,Delhi,Delhi,"Alipur, Delhi - DPCC","27-01-2026 09:00:00",28.815329,77.153010,SO2,7,16,9
India,Delhi,Delhi,"Alipur, Delhi - DPCC","27-01-2026 09:00:00",28.815329,77.153010,CO,34,98,61
India,Delhi,Delhi,"Anand Vihar, Delhi - DPCC","27-01-2026 09:00:00",28.647622,77.3158090,NO2,50,123,83
India,Delhi,Delhi,"Ashok Vihar, Delhi - DPCC","27-01-2026 09:00:00",28.695381,77.181665,NH3,8,8,8
India,Delhi,Delhi,"Ashok Vihar, Delhi - DPCC","27-01-2026 09:00:00",28.695381,77.181665,CO,28,148,84
India,Delhi,Delhi,"Ashok Vihar, Delhi - DPCC","27-01-2026 09:00:00",28.695381,77.181665,OZONE,3,183,4
India,Delhi,Delhi,"IGI Airport (T3), Delhi - IMD","27-01-2026 09:00:00",28.5627763,77.1180053,PM10,132,348,190
India,Delhi,Delhi,"IHBAS, Dilshad Garden, Delhi - CPCB","27-01-2026 09:00:00",28.6811736,77.3025234,PM10,104,369,199
India,Delhi,Delhi,"IHBAS, Dilshad Garden, Delhi - CPCB","27-01-2026 09:00:00",28.6811736,77.3025234,SO2,1,25,15
India,Delhi,Delhi,"IIT Delhi, Delhi - IITM","27-01-2026 09:00:00",28.542460,77.191651,PM10,116,283,179
India,Delhi,Delhi,"IIT Delhi, Delhi - IITM","27-01-2026 09:00:00",28.542460,77.191651,OZONE,6,75,12
India,Delhi,Delhi,"ITO, Delhi - CPCB","27-01-2026 09:00:00",28.628624,77.241060,NO2,38,141,78
India,Delhi,Delhi,"ITO, Delhi - CPCB","27-01-2026 09:00:00",28.628624,77.241060,OZONE,3,44,4
India,Delhi,Delhi,"Jahangirpuri, Delhi - DPCC","27-01-2026 09:00:00",28.732820,77.170633,CO,40,137,103
India,Delhi,Delhi,"Jawaharlal Nehru Stadium, Delhi - DPCC","27-01-2026 09:00:00",28.580280,77.233829,PM10,127,411,252
India,Delhi,Delhi,"Jawaharlal Nehru Stadium, Delhi - DPCC","27-01-2026 09:00:00",28.580280,77.233829,NH3,15,19,17
India,Delhi,Delhi,"Bawana, Delhi - DPCC","27-01-2026 09:00:00",28.776200,77.051074,PM10,107,478,265
India,Delhi,Delhi,"Bawana, Delhi - DPCC","27-01-2026 09:00:00",28.776200,77.051074,NH3,6,10,8
India,Delhi,Delhi,"Burari Crossing, Delhi - IMD","27-01-2026 09:00:00",28.7256504,77.2011573,PM10,130,419,265
India,Delhi,Delhi,"Burari Crossing, Delhi - IMD","27-01-2026 09:00:00",28.7256504,77.2011573,CO,30,115,99
India,Delhi,Delhi,"Chandni Chowk, Delhi - IITM","27-01-2026 09:00:00",28.656756,77.227234,NO2,18,104,58
India,Delhi,Delhi,"Chandni Chowk, Delhi - IITM","27-01-2026 09:00:00",28.656756,77.227234,SO2,12,38,24
India,Delhi,Delhi,"Chandni Chowk, Delhi - IITM","27-01-2026 09:00:00",28.656756,77.227234,CO,83,143,123
India,Delhi,Delhi,"DTU, Delhi - CPCB","27-01-2026 09:00:00",28.7500499,77.1112615,PM10,116,381,229
India,Delhi,Delhi,"Dr. Karni Singh Shooting Range, Delhi - DPCC","27-01-2026 09:00:00",28.498571,77.264840,PM2.5,147,451,299
India,Delhi,Delhi,"Dr. Karni Singh Shooting Range, Delhi - DPCC","27-01-2026 09:00:00",28.498571,77.264840,PM10,137,436,207
India,Delhi,Delhi,"Pusa, Delhi - DPCC","27-01-2026 09:00:00",28.639652,77.146275,PM2.5,217,382,308
India,Delhi,Delhi,"Pusa, Delhi - DPCC","27-01-2026 09:00:00",28.639652,77.146275,NH3,15,20,18
India,Delhi,Delhi,"Pusa, Delhi - IMD","27-01-2026 09:00:00",28.636110,77.173332,OZONE,33,299,37
India,Delhi,Delhi,"Rohini, Delhi - DPCC","27-01-2026 09:00:00",28.732528,77.119920,NO2,21,108,58
India,Delhi,Delhi,"Rohini, Delhi - DPCC","27-01-2026 09:00:00",28.732528,77.119920,NH3,23,28,25
India,Delhi,Delhi,"Rohini, Delhi - DPCC","27-01-2026 09:00:00",28.732528,77.119920,SO2,7,20,13
India,Delhi,Delhi,"Shadipur, Delhi - CPCB","27-01-2026 09:00:00",28.6514781,77.1473105,PM2.5,56,384,233
India,Delhi,Delhi,"Shadipur, Delhi - CPCB","27-01-2026 09:00:00",28.6514781,77.1473105,NH3,11,18,13
India,Delhi,Delhi,"Sirifort, Delhi - CPCB","27-01-2026 09:00:00",28.5504249,77.2159377,PM10,138,433,270
India,Delhi,Delhi,"Najafgarh, Delhi - DPCC","27-01-2026 09:00:00",28.570173,76.933762,CO,16,128,82
India,Delhi,Delhi,"Nehru Nagar, Delhi - DPCC","27-01-2026 09:00:00",28.567890,77.250515,PM2.5,243,500,370
India,Delhi,Delhi,"North Campus, DU, Delhi - IMD","27-01-2026 09:00:00",28.6573814,77.1585447,PM10,123,442,231
India,Delhi,Delhi,"North Campus, DU, Delhi - IMD","27-01-2026 09:00:00",28.6573814,77.1585447,CO,37,139,133
India,Delhi,Delhi,"Okhla Phase-2, Delhi - DPCC","27-01-2026 09:00:00",28.530785,77.271255,PM10,122,456,277
India,Delhi,Delhi,"Patparganj, Delhi - DPCC","27-01-2026 09:00:00",28.623763,77.287209,NH3,8,14,10
India,Delhi,Delhi,"Patparganj, Delhi - DPCC","27-01-2026 09:00:00",28.623763,77.287209,OZONE,2,289,4
India,Gujarat,Ahmedabad,"Maninagar, Ahmedabad - GPCB","27-01-2026 09:00:00",23.002657,72.591912,NO2,113,133,127
India,Gujarat,Ahmedabad,"Maninagar, Ahmedabad - GPCB","27-01-2026 09:00:00",23.002657,72.591912,CO,8,22,12
India,Gujarat,Ahmedabad,"Raikhad, Ahmedabad - IITM","27-01-2026 09:00:00",23.020509,72.579261,NH3,13,33,20
India,Gujarat,Ahmedabad,"Rakhial, Ahmedabad - IITM","27-01-2026 09:00:00",23.016834,72.625775,SO2,20,108,37
India,Gujarat,Ahmedabad,"SAC ISRO Bopal, Ahmedabad - IITM","27-01-2026 09:00:00",23.041137,72.456691,PM10,107,182,152
India,Gujarat,Ahmedabad,"SAC ISRO Bopal, Ahmedabad - IITM","27-01-2026 09:00:00",23.041137,72.456691,NO2,18,38,29
India,Gujarat,Ahmedabad,"SAC ISRO Satellite, Ahmedabad - IITM","27-01-2026 09:00:00",23.023389,72.515201,PM10,99,169,127
India,Delhi,Delhi,"Lodhi Road, Delhi - IMD","27-01-2026 09:00:00",28.5918245,77.2273074,PM2.5,79,313,201
India,Delhi,Delhi,"Lodhi Road, Delhi - IMD","27-01-2026 09:00:00",28.5918245,77.2273074,NO2,17,73,44
India,Delhi,Delhi,"Lodhi Road, Delhi - IMD","27-01-2026 09:00:00",28.5918245,77.2273074,CO,46,104,101
India,Delhi,Delhi,"Lodhi Road, Delhi - IMD","27-01-2026 09:00:00",28.5918245,77.2273074,OZONE,16,176,19
India,Delhi,Delhi,"Major Dhyan Chand National Stadium, Delhi - DPCC","27-01-2026 09:00:00",28.611281,77.237738,PM10,100,362,206
India,Delhi,Delhi,"Major Dhyan Chand National Stadium, Delhi - DPCC","27-01-2026 09:00:00",28.611281,77.237738,OZONE,2,199,3
India,Delhi,Delhi,"Najafgarh, Delhi - DPCC","27-01-2026 09:00:00",28.570173,76.933762,PM2.5,83,410,237
India,Delhi,Delhi,"Sri Aurobindo Marg, Delhi - DPCC","27-01-2026 09:00:00",28.531346,77.190156,OZONE,2,135,2
India,Delhi,Delhi,"Vivek Vihar, Delhi - DPCC","27-01-2026 09:00:00",28.672342,77.315260,NH3,11,13,12
India,Delhi,Delhi,"Vivek Vihar, Delhi - DPCC","27-01-2026 09:00:00",28.672342,77.315260,OZONE,1,175,1
India,Delhi,Delhi,"Wazirpur, Delhi - DPCC","27-01-2026 09:00:00",28.699793,77.165453,PM2.5,243,500,381
India,Delhi,Delhi,"Wazirpur, Delhi - DPCC","27-01-2026 09:00:00",28.699793,77.165453,PM10,156,500,337
India,Haryana,Faridabad,"New Industrial Town, Faridabad - HSPCB","27-01-2026 09:00:00",28.39072,77.30059,PM2.5,208,220,214
India,Haryana,Faridabad,"New Industrial Town, Faridabad - HSPCB","27-01-2026 09:00:00",28.39072,77.30059,PM10,170,177,174
India,Haryana,Faridabad,"New Industrial Town, Faridabad - HSPCB","27-01-2026 09:00:00",28.39072,77.30059,SO2,8,8,8
India,Haryana,Faridabad,"Sector 30, Faridabad - HSPCB","27-01-2026 09:00:00",28.4417,77.3217,PM10,70,77,72
India,Haryana,Faridabad,"Sector 30, Faridabad - HSPCB","27-01-2026 09:00:00",28.4417,77.3217,NO2,36,39,37
India,Haryana,Faridabad,"Sector 30, Faridabad - HSPCB","27-01-2026 09:00:00",28.4417,77.3217,NH3,10,12,11
India,Haryana,Faridabad,"Sector 30, Faridabad - HSPCB","27-01-2026 09:00:00",28.4417,77.3217,SO2,6,6,6
India,Haryana,Fatehabad,"Huda Sector, Fatehabad - HSPCB","27-01-2026 09:00:00",29.503664,75.467934,PM2.5,1,8,5
India,Haryana,Fatehabad,"Huda Sector, Fatehabad - HSPCB","27-01-2026 09:00:00",29.503664,75.467934,NO2,17,20,19
India,Haryana,Fatehabad,"Huda Sector, Fatehabad - HSPCB","27-01-2026 09:00:00",29.503664,75.467934,CO,25,37,26
India,Haryana,Fatehabad,"Huda Sector, Fatehabad - HSPCB","27-01-2026 09:00:00",29.503664,75.467934,OZONE,48,57,52
India,Haryana,Gurugram,"NISE Gwal Pahari, Gurugram - IMD","27-01-2026 09:00:00",28.422681,77.148944,PM10,96,218,144
India,Haryana,Gurugram,"Sector-51, Gurugram - HSPCB","27-01-2026 09:00:00",28.4227,77.0667,PM10,130,500,239
India,Haryana,Gurugram,"Sector-51, Gurugram - HSPCB","27-01-2026 09:00:00",28.4227,77.0667,CO,14,102,29
India,Haryana,Gurugram,"Vikas Sadan, Gurugram - HSPCB","27-01-2026 09:00:00",28.4501238,77.0263051,NO2,9,45,26
India,Haryana,Hisar,"Urban Estate-II, Hisar - HSPCB","27-01-2026 09:00:00",29.140560,75.744941,PM2.5,39,83,59
India,Haryana,Hisar,"Urban Estate-II, Hisar - HSPCB","27-01-2026 09:00:00",29.140560,75.744941,NH3,10,11,11
India,Haryana,Jind,"Police Lines, Jind - HSPCB","27-01-2026 09:00:00",29.307814,76.337619,OZONE,5,29,9
India,Haryana,Kaithal,"Rishi Nagar, Kaithal - HSPCB","27-01-2026 09:00:00",29.8006,76.4155,NH3,5,6,6
India,Haryana,Kaithal,"Rishi Nagar, Kaithal - HSPCB","27-01-2026 09:00:00",29.8006,76.4155,SO2,26,36,32
India,Haryana,Karnal,"Sector-12, Karnal - HSPCB","27-01-2026 09:00:00",29.695300,77.002700,NH3,6,7,6
India,Haryana,Karnal,"Sector-12, Karnal - HSPCB","27-01-2026 09:00:00",29.695300,77.002700,OZONE,32,32,32
India,Haryana,Kurukshetra,"Sector-7, Kurukshetra - HSPCB","27-01-2026 09:00:00",29.966942,76.875879,PM10,112,154,131
India,Karnataka,Bengaluru,"Bapuji Nagar, Bengaluru - KSPCB","27-01-2026 09:00:00",12.951913,77.539784,NH3,2,2,2
India,Karnataka,Bengaluru,"City Railway Station, Bengaluru - KSPCB","27-01-2026 09:00:00",12.9756843,77.5660749,PM10,NA,NA,NA
India,Karnataka,Bengaluru,"Hebbal, Bengaluru - KSPCB","27-01-2026 09:00:00",13.029152,77.585901,OZONE,4,8,7
India,Karnataka,Bengaluru,"Hombegowda Nagar, Bengaluru - KSPCB","27-01-2026 09:00:00",12.938539,77.590100,NH3,3,4,3
India,Karnataka,Bengaluru,"Hombegowda Nagar, Bengaluru - KSPCB","27-01-2026 09:00:00",12.938539,77.590100,CO,10,40,20
India,Karnataka,Bengaluru,"Hombegowda Nagar, Bengaluru - KSPCB","27-01-2026 09:00:00",12.938539,77.590100,OZONE,8,28,20
India,Karnataka,Bengaluru,"Jayanagar 5th Block, Bengaluru - KSPCB","27-01-2026 09:00:00",12.920984,77.584908,SO2,4,18,11
India,Karnataka,Bengaluru,"Jigani, Bengaluru - KSPCB","27-01-2026 09:00:00",12.7816279,77.6299145,SO2,18,19,18
India,Karnataka,Bengaluru,"Kasturi Nagar, Bengaluru - KSPCB","27-01-2026 09:00:00",13.003872,77.664217,PM10,59,66,66
India,Karnataka,Bengaluru,"Kasturi Nagar, Bengaluru - KSPCB","27-01-2026 09:00:00",13.003872,77.664217,NH3,4,4,4
India,Karnataka,Bengaluru,"Kasturi Nagar, Bengaluru - KSPCB","27-01-2026 09:00:00",13.003872,77.664217,SO2,10,13,11
India,Karnataka,Bengaluru,"Peenya, Bengaluru - CPCB","27-01-2026 09:00:00",13.0270199,77.494094,NO2,22,28,25
India,Karnataka,Bengaluru,"Sanegurava Halli, Bengaluru - KSPCB","27-01-2026 09:00:00",12.990328,77.5431385,NO2,17,18,18
India,Karnataka,Bengaluru,"Shivapura_Peenya, Bengaluru - KSPCB","27-01-2026 09:00:00",13.0246342,77.5080115,NO2,79,79,79
India,Karnataka,Bengaluru,"Shivapura_Peenya, Bengaluru - KSPCB","27-01-2026 09:00:00",13.0246342,77.5080115,SO2,3,4,3
India,Karnataka,Bengaluru,"Shivapura_Peenya, Bengaluru - KSPCB","27-01-2026 09:00:00",13.0246342,77.5080115,OZONE,71,72,72
India,Karnataka,Chamarajanagar,"Urban, Chamarajanagar - KSPCB","27-01-2026 09:00:00",11.55358,76.55521,PM2.5,20,45,35
India,Karnataka,Chamarajanagar,"Urban, Chamarajanagar - KSPCB","27-01-2026 09:00:00",11.55358,76.55521,CO,12,25,18
India,Karnataka,Chikkaballapur,"Chikkaballapur Rural, Chikkaballapur - KSPCB","27-01-2026 09:00:00",13.428828,77.731418,PM10,3,65,36
India,Haryana,Panipat,"Sector-18, Panipat - HSPCB","27-01-2026 09:00:00",29.432304,76.972765,NH3,2,3,2
India,Haryana,Rohtak,"MD University, Rohtak - HSPCB","27-01-2026 09:00:00",28.52123,76.37138,PM2.5,71,480,141
India,Haryana,Rohtak,"MD University, Rohtak - HSPCB","27-01-2026 09:00:00",28.52123,76.37138,CO,28,38,35
India,Haryana,Rohtak,"MD University, Rohtak - HSPCB","27-01-2026 09:00:00",28.52123,76.37138,OZONE,39,40,39
India,Haryana,Sirsa,"F-Block, Sirsa - HSPCB","27-01-2026 09:00:00",29.536400,75.015800,PM10,58,142,93
India,Haryana,Sonipat,"Murthal, Sonipat - HSPCB","27-01-2026 09:00:00",29.027200,77.062100,NH3,19,34,28
India,Haryana,"Yamuna Nagar","Gobind Pura, Yamuna Nagar - HSPCB","27-01-2026 09:00:00",30.1480566,77.2893471,OZONE,8,34,14
India,"Himachal Pradesh",Baddi,"HIMUDA Complex Phase-1, Baddi - HPPCB","27-01-2026 09:00:00",30.943887,76.801991,PM2.5,55,330,219
India,Haryana,Kurukshetra,"Sector-7, Kurukshetra - HSPCB","27-01-2026 09:00:00",29.966942,76.875879,OZONE,2,46,4
India,Haryana,Narnaul,"Shastri Nagar, Narnaul - HSPCB","27-01-2026 09:00:00",28.060249,76.113115,PM2.5,117,411,265
India,Haryana,Narnaul,"Shastri Nagar, Narnaul - HSPCB","27-01-2026 09:00:00",28.060249,76.113115,PM10,100,378,168
India,Haryana,Narnaul,"Shastri Nagar, Narnaul - HSPCB","27-01-2026 09:00:00",28.060249,76.113115,SO2,6,7,6
India,Haryana,Palwal,"Shyam Nagar, Palwal - HSPCB","27-01-2026 09:00:00",28.1485564,77.3320667,PM10,80,219,111
India,Haryana,Palwal,"Shyam Nagar, Palwal - HSPCB","27-01-2026 09:00:00",28.1485564,77.3320667,NO2,23,24,24
India,Haryana,Palwal,"Shyam Nagar, Palwal - HSPCB","27-01-2026 09:00:00",28.1485564,77.3320667,SO2,14,15,14
India,Haryana,Panchgaon,"Amity University, Panchgaon - IITM","27-01-2026 09:00:00",28.3153,76.9143,NH3,4,7,5
India,Haryana,Panchgaon,"Amity University, Panchgaon - IITM","27-01-2026 09:00:00",28.3153,76.9143,SO2,11,20,17
India,Karnataka,Bagalkot,"Vidayagiri, Bagalkot - KSPCB","27-01-2026 09:00:00",16.172806,75.659694,NH3,1,2,1
India,Karnataka,Bagalkot,"Vidayagiri, Bagalkot - KSPCB","27-01-2026 09:00:00",16.172806,75.659694,SO2,7,7,7
India,Karnataka,Belgaum,"Ramteerth Nagar, Belgaum - KSPCB","27-01-2026 09:00:00",15.888653,74.541751,NO2,1,98,29
India,Karnataka,Belgaum,"Ramteerth Nagar, Belgaum - KSPCB","27-01-2026 09:00:00",15.888653,74.541751,NH3,9,12,10
India,Karnataka,Belgaum,"Ramteerth Nagar, Belgaum - KSPCB","27-01-2026 09:00:00",15.888653,74.541751,SO2,29,31,30
India,Karnataka,Bengaluru,"BWSSB Kadabesanahalli, Bengaluru - CPCB","27-01-2026 09:00:00",12.9352049,77.6814488,PM2.5,25,90,56
India,Karnataka,Bengaluru,"BWSSB Kadabesanahalli, Bengaluru - CPCB","27-01-2026 09:00:00",12.9352049,77.6814488,SO2,4,6,5
India,Gujarat,Ankleshwar,"GIDC, Ankleshwar - GPCB","27-01-2026 09:00:00",21.613267,73.010555,NO2,16,17,16
